[
  {
    "dep": 75,
    "nom": "UGC GEORGE V",
    "adresse": "146 AVENUE DES CHAMPS ELYSEES",
    "code_insee": 75108,
    "commune": "Paris 8e Arrondissement",
    "ecrans": 11,
    "fauteuils": 1666,
    "geo": {
      "lon": 2.298394,
      "lat": 48.873073
    }
  },
  {
    "dep": 75,
    "nom": "UGC NORMANDIE",
    "adresse": "116 AVENUE DES CHAMPS ELYSEES",
    "code_insee": 75108,
    "commune": "Paris 8e Arrondissement",
    "ecrans": 4,
    "fauteuils": 1610,
    "geo": {
      "lon": 2.300938,
      "lat": 48.872265
    }
  },
  {
    "dep": 75,
    "nom": "BALZAC",
    "adresse": "1 RUE BALZAC",
    "code_insee": 75108,
    "commune": "Paris 8e Arrondissement",
    "ecrans": 3,
    "fauteuils": 589,
    "geo": {
      "lon": 2.299525,
      "lat": 48.872431
    }
  },
  {
    "dep": 75,
    "nom": "GAUMONT CHAMPS ELYSEES MARIGNAN",
    "adresse": "27/33 AVENUE DES CHAMPS ELYSEES",
    "code_insee": 75108,
    "commune": "Paris 8e Arrondissement",
    "ecrans": 6,
    "fauteuils": 1597,
    "geo": {
      "lon": 2.306873,
      "lat": 48.869654
    }
  },
  {
    "dep": 75,
    "nom": "ELYSEES LINCOLN",
    "adresse": "14 RUE LINCOLN",
    "code_insee": 75108,
    "commune": "Paris 8e Arrondissement",
    "ecrans": 3,
    "fauteuils": 448,
    "geo": {
      "lon": 2.303157,
      "lat": 48.870512
    }
  },
  {
    "dep": 75,
    "nom": "UGC OPERA",
    "adresse": "32 BD DES ITALIENS",
    "code_insee": 75109,
    "commune": "Paris 9e Arrondissement",
    "ecrans": 4,
    "fauteuils": 760,
    "geo": {
      "lon": 2.335302,
      "lat": 48.871332
    }
  },
  {
    "dep": 75,
    "nom": "MAX LINDER",
    "adresse": "24 BD POISSONNIERE",
    "code_insee": 75109,
    "commune": "Paris 9e Arrondissement",
    "ecrans": 1,
    "fauteuils": 591,
    "geo": {
      "lon": 2.344886,
      "lat": 48.871363
    }
  },
  {
    "dep": 75,
    "nom": "GRAND REX",
    "adresse": "5 BD POISSONNIERE",
    "code_insee": 75102,
    "commune": "Paris 2e Arrondissement",
    "ecrans": 7,
    "fauteuils": 4274,
    "geo": {
      "lon": 2.347608,
      "lat": 48.86872
    }
  },
  {
    "dep": 75,
    "nom": "PATHE",
    "adresse": "32 RUE LOUIS LEGRAND",
    "code_insee": 75102,
    "commune": "Paris 2e Arrondissement",
    "ecrans": 6,
    "fauteuils": 1138,
    "geo": {
      "lon": 2.334338,
      "lat": 48.870632
    }
  },
  {
    "dep": 75,
    "nom": "UGC MONTPARNASSE",
    "adresse": "83 BD DU MONTPARNASSE",
    "code_insee": 75106,
    "commune": "Paris 6e Arrondissement",
    "ecrans": 7,
    "fauteuils": 1592,
    "geo": {
      "lon": 2.325646,
      "lat": 48.84351
    }
  },
  {
    "dep": 75,
    "nom": "GAUMONT PARNASSE",
    "adresse": "3 RUE D'ODESSA",
    "code_insee": 75114,
    "commune": "Paris 14e Arrondissement",
    "ecrans": 15,
    "fauteuils": 2876,
    "geo": {
      "lon": 2.324424,
      "lat": 48.843074
    }
  },
  {
    "dep": 75,
    "nom": "ENTREPOT",
    "adresse": "7 ET 9 RUE FRANCIS DE PRESSENSE",
    "code_insee": 75114,
    "commune": "Paris 14e Arrondissement",
    "ecrans": 3,
    "fauteuils": 250,
    "geo": {
      "lon": 2.31652,
      "lat": 48.83393
    }
  },
  {
    "dep": 75,
    "nom": "MK2 BEAUBOURG",
    "adresse": "50 RUE RAMBUTEAU",
    "code_insee": 75103,
    "commune": "Paris 3e Arrondissement",
    "ecrans": 6,
    "fauteuils": 557,
    "geo": {
      "lon": 2.352217,
      "lat": 48.861555
    }
  },
  {
    "dep": 75,
    "nom": "UGC MAILLOT",
    "adresse": "PALAIS CONGRES PL PORTE MAILLOT",
    "code_insee": 75117,
    "commune": "Paris 17e Arrondissement",
    "ecrans": 4,
    "fauteuils": 764,
    "geo": {
      "lon": 2.282965,
      "lat": 48.878512
    }
  },
  {
    "dep": 75,
    "nom": "MK2 ODEON COTE SAINT-MICHEL",
    "adresse": "7 RUE HAUTEFEUILLE",
    "code_insee": 75106,
    "commune": "Paris 6e Arrondissement",
    "ecrans": 4,
    "fauteuils": 510,
    "geo": {
      "lon": 2.342788,
      "lat": 48.852188
    }
  },
  {
    "dep": 75,
    "nom": "MK2 ODEON COTE SAINT-GERMAIN",
    "adresse": "113 BD ST GERMAIN",
    "code_insee": 75106,
    "commune": "Paris 6e Arrondissement",
    "ecrans": 5,
    "fauteuils": 678,
    "geo": {
      "lon": 2.338266,
      "lat": 48.852437
    }
  },
  {
    "dep": 75,
    "nom": "STUDIO GALANDE",
    "adresse": "42 RUE GALANDE",
    "code_insee": 75105,
    "commune": "Paris 5e Arrondissement",
    "ecrans": 1,
    "fauteuils": 97,
    "geo": {
      "lon": 2.347076,
      "lat": 48.851619
    }
  },
  {
    "dep": 75,
    "nom": "LUXEMBOURG",
    "adresse": "67 69 RUE MONSIEUR LE PRINCE",
    "code_insee": 75106,
    "commune": "Paris 6e Arrondissement",
    "ecrans": 3,
    "fauteuils": 334,
    "geo": {
      "lon": 2.340797,
      "lat": 48.84824
    }
  },
  {
    "dep": 75,
    "nom": "ST ANDRE DES ARTS",
    "adresse": "30 RUE ST ANDRE DES ARTS",
    "code_insee": 75106,
    "commune": "Paris 6e Arrondissement",
    "ecrans": 3,
    "fauteuils": 510,
    "geo": {
      "lon": 2.34211,
      "lat": 48.853361
    }
  },
  {
    "dep": 75,
    "nom": "MK2 PARNASSE",
    "adresse": "11 RUE JULES CHAPLAIN",
    "code_insee": 75106,
    "commune": "Paris 6e Arrondissement",
    "ecrans": 3,
    "fauteuils": 250,
    "geo": {
      "lon": 2.330525,
      "lat": 48.842813
    }
  },
  {
    "dep": 75,
    "nom": "UGC ROTONDE",
    "adresse": "103 BD DU MONTPARNASSE",
    "code_insee": 75106,
    "commune": "Paris 6e Arrondissement",
    "ecrans": 3,
    "fauteuils": 454,
    "geo": {
      "lon": 2.328975,
      "lat": 48.842318
    }
  },
  {
    "dep": 75,
    "nom": "BRETAGNE",
    "adresse": "73 BD DU MONTPARNASSE",
    "code_insee": 75106,
    "commune": "Paris 6e Arrondissement",
    "ecrans": 2,
    "fauteuils": 1020,
    "geo": {
      "lon": 2.324925,
      "lat": 48.843752
    }
  },
  {
    "dep": 75,
    "nom": "LUCERNAIRE FORUM",
    "adresse": "53 RUE NOTRE DAME DES CHAMPS",
    "code_insee": 75106,
    "commune": "Paris 6e Arrondissement",
    "ecrans": 3,
    "fauteuils": 148,
    "geo": {
      "lon": 2.330407,
      "lat": 48.844244
    }
  },
  {
    "dep": 75,
    "nom": "PARNASSIEN",
    "adresse": "98 BD DU MONTPARNASSE",
    "code_insee": 75114,
    "commune": "Paris 14e Arrondissement",
    "ecrans": 7,
    "fauteuils": 842,
    "geo": {
      "lon": 2.327625,
      "lat": 48.842443
    }
  },
  {
    "dep": 75,
    "nom": "CHRISTINE CINEMA CLUB",
    "adresse": "4 RUE CHRISTINE",
    "code_insee": 75106,
    "commune": "Paris 6e Arrondissement",
    "ecrans": 2,
    "fauteuils": 234,
    "geo": {
      "lon": 2.340132,
      "lat": 48.854455
    }
  },
  {
    "dep": 75,
    "nom": "ST GERMAIN DES PRES",
    "adresse": "22 RUE GUILLAUME APOLLINAIRE",
    "code_insee": 75106,
    "commune": "Paris 6e Arrondissement",
    "ecrans": 1,
    "fauteuils": 252,
    "geo": {
      "lon": 2.333052,
      "lat": 48.85467
    }
  },
  {
    "dep": 75,
    "nom": "PUBLICIS ELYSEES",
    "adresse": "133 AV DES CHAMPS ELYSEES",
    "code_insee": 75108,
    "commune": "Paris 8e Arrondissement",
    "ecrans": 2,
    "fauteuils": 609,
    "geo": {
      "lon": 2.296984,
      "lat": 48.872794
    }
  },
  {
    "dep": 75,
    "nom": "L'ARCHIPEL",
    "adresse": "17 BD DE STRASBOURG",
    "code_insee": 75110,
    "commune": "Paris 10e Arrondissement",
    "ecrans": 2,
    "fauteuils": 204,
    "geo": {
      "lon": 2.35466,
      "lat": 48.870455
    }
  },
  {
    "dep": 75,
    "nom": "LE BRADY",
    "adresse": "39 BOULEVARD DE STRASBOURG",
    "code_insee": 75110,
    "commune": "Paris 10e Arrondissement",
    "ecrans": 2,
    "fauteuils": 139,
    "geo": {
      "lon": 2.355398,
      "lat": 48.871771
    }
  },
  {
    "dep": 75,
    "nom": "UGC CINE CITE LES HALLES",
    "adresse": "101 RUE BERGER",
    "code_insee": 75101,
    "commune": "Paris 1er Arrondissement",
    "ecrans": 27,
    "fauteuils": 3894,
    "geo": {
      "lon": 2.345829,
      "lat": 48.861424
    }
  },
  {
    "dep": 75,
    "nom": "LUMINOR HOTEL DE VILLE",
    "adresse": "20 RUE DU TEMPLE",
    "code_insee": 75104,
    "commune": "Paris 4e Arrondissement",
    "ecrans": 2,
    "fauteuils": 238,
    "geo": {
      "lon": 2.353591,
      "lat": 48.858689
    }
  },
  {
    "dep": 75,
    "nom": "MAJESTIC PASSY",
    "adresse": "18 - 20 RUE DE PASSY",
    "code_insee": 75116,
    "commune": "Paris 16e Arrondissement",
    "ecrans": 3,
    "fauteuils": 617,
    "geo": {
      "lon": 2.282104,
      "lat": 48.858204
    }
  },
  {
    "dep": 75,
    "nom": "MAC MAHON",
    "adresse": "5/7 AV MAC MAHON",
    "code_insee": 75117,
    "commune": "Paris 17e Arrondissement",
    "ecrans": 1,
    "fauteuils": 137,
    "geo": {
      "lon": 2.294655,
      "lat": 48.875715
    }
  },
  {
    "dep": 75,
    "nom": "CAUMARTIN",
    "adresse": "101 RUE ST LAZARE",
    "code_insee": 75109,
    "commune": "Paris 9e Arrondissement",
    "ecrans": 5,
    "fauteuils": 501,
    "geo": {
      "lon": 2.32791,
      "lat": 48.87561
    }
  },
  {
    "dep": 75,
    "nom": "LE CINEMA DES CINEASTES",
    "adresse": "7 AVENUE DE CLICHY",
    "code_insee": 75117,
    "commune": "Paris 17e Arrondissement",
    "ecrans": 3,
    "fauteuils": 478,
    "geo": {
      "lon": 2.326888,
      "lat": 48.884303
    }
  },
  {
    "dep": 75,
    "nom": "PATHE WEPLER",
    "adresse": "132 -140 BOULEVARD DE CLICHY",
    "code_insee": 75118,
    "commune": "Paris 18e Arrondissement",
    "ecrans": 11,
    "fauteuils": 2077,
    "geo": {
      "lon": 2.328034,
      "lat": 48.883938
    }
  },
  {
    "dep": 75,
    "nom": "STUDIO 28",
    "adresse": "10 RUE THOLOZE",
    "code_insee": 75118,
    "commune": "Paris 18e Arrondissement",
    "ecrans": 1,
    "fauteuils": 172,
    "geo": {
      "lon": 2.335342,
      "lat": 48.886142
    }
  },
  {
    "dep": 75,
    "nom": "MK2 QUAI DE SEINE",
    "adresse": "14 QUAI DE LA SEINE",
    "code_insee": 75119,
    "commune": "Paris 19e Arrondissement",
    "ecrans": 6,
    "fauteuils": 992,
    "geo": {
      "lon": 2.371493,
      "lat": 48.885073
    }
  },
  {
    "dep": 75,
    "nom": "MK2 GAMBETTA",
    "adresse": "6 RUE BELGRAND",
    "code_insee": 75120,
    "commune": "Paris 20e Arrondissement",
    "ecrans": 6,
    "fauteuils": 1140,
    "geo": {
      "lon": 2.399555,
      "lat": 48.864763
    }
  },
  {
    "dep": 75,
    "nom": "MK2 BASTILLE COTE FAUBOURG SAINT-ANTOINE",
    "adresse": "5 RUE DU FAUBOURG ST ANTOINE",
    "code_insee": 75111,
    "commune": "Paris 11e Arrondissement",
    "ecrans": 3,
    "fauteuils": 423,
    "geo": {
      "lon": 2.370719,
      "lat": 48.853157
    }
  },
  {
    "dep": 75,
    "nom": "MAJESTIC BASTILLE",
    "adresse": "4 BD RICHARD LENOIR",
    "code_insee": 75111,
    "commune": "Paris 11e Arrondissement",
    "ecrans": 2,
    "fauteuils": 356,
    "geo": {
      "lon": 2.37214,
      "lat": 48.860238
    }
  },
  {
    "dep": 75,
    "nom": "MK2 BASTILLE COTE BEAUMARCHAIS",
    "adresse": "3 BD R LENOIR 4/6 BD BEAUMARCHAI",
    "code_insee": 75111,
    "commune": "Paris 11e Arrondissement",
    "ecrans": 4,
    "fauteuils": 469,
    "geo": {
      "lon": 2.369381,
      "lat": 48.854674
    }
  },
  {
    "dep": 75,
    "nom": "MK2 NATION",
    "adresse": "133 BOULEVARD DIDEROT",
    "code_insee": 75112,
    "commune": "Paris 12e Arrondissement",
    "ecrans": 6,
    "fauteuils": 551,
    "geo": {
      "lon": 2.39311,
      "lat": 48.848213
    }
  },
  {
    "dep": 75,
    "nom": "UGC LYON BASTILLE",
    "adresse": "12 RUE DE LYON",
    "code_insee": 75112,
    "commune": "Paris 12e Arrondissement",
    "ecrans": 7,
    "fauteuils": 1274,
    "geo": {
      "lon": 2.371855,
      "lat": 48.847502
    }
  },
  {
    "dep": 75,
    "nom": "UGC CINE CITE BERCY",
    "adresse": "2 COUR SAINT-EMILION",
    "code_insee": 75112,
    "commune": "Paris 12e Arrondissement",
    "ecrans": 18,
    "fauteuils": 4440,
    "geo": {
      "lon": 2.38604,
      "lat": 48.833595
    }
  },
  {
    "dep": 75,
    "nom": "CHAPLIN SAINT LAMBERT",
    "adresse": "6 RUE PECLET",
    "code_insee": 75115,
    "commune": "Paris 15e Arrondissement",
    "ecrans": 3,
    "fauteuils": 363,
    "geo": {
      "lon": 2.298558,
      "lat": 48.843204
    }
  },
  {
    "dep": 75,
    "nom": "GAUMONT CONVENTION",
    "adresse": "27 RUE ALAIN CHARTIER",
    "code_insee": 75115,
    "commune": "Paris 15e Arrondissement",
    "ecrans": 9,
    "fauteuils": 1263,
    "geo": {
      "lon": 2.296259,
      "lat": 48.837759
    }
  },
  {
    "dep": 75,
    "nom": "GAUMONT AQUABOULEVARD",
    "adresse": "8/16 RUE DU COLONEL PIERRE AVIA",
    "code_insee": 75115,
    "commune": "Paris 15e Arrondissement",
    "ecrans": 14,
    "fauteuils": 2583,
    "geo": {
      "lon": 2.276322,
      "lat": 48.830408
    }
  },
  {
    "dep": 75,
    "nom": "GAUMONT MONTPARNOS",
    "adresse": "16 18 RUE D ODESSA",
    "code_insee": 75114,
    "commune": "Paris 14e Arrondissement",
    "ecrans": 4,
    "fauteuils": 397,
    "geo": {
      "lon": 2.324596,
      "lat": 48.841914
    }
  },
  {
    "dep": 75,
    "nom": "GAUMONT ALESIA",
    "adresse": "73 AVENUE DU GENERAL LECLERC",
    "code_insee": 75114,
    "commune": "Paris 14e Arrondissement",
    "ecrans": 8,
    "fauteuils": 1384,
    "geo": {
      "lon": 2.327463,
      "lat": 48.828166
    }
  },
  {
    "dep": 75,
    "nom": "CHAPLIN DENFERT",
    "adresse": "24 PLACE DENFERT ROCHEREAU",
    "code_insee": 75114,
    "commune": "Paris 14e Arrondissement",
    "ecrans": 1,
    "fauteuils": 133,
    "geo": {
      "lon": 2.330976,
      "lat": 48.833879
    }
  },
  {
    "dep": 75,
    "nom": "L ARLEQUIN PANORAMA",
    "adresse": "76 RUE DE RENNES",
    "code_insee": 75106,
    "commune": "Paris 6e Arrondissement",
    "ecrans": 3,
    "fauteuils": 595,
    "geo": {
      "lon": 2.330648,
      "lat": 48.851278
    }
  },
  {
    "dep": 75,
    "nom": "UGC DANTON",
    "adresse": "99 BD ST GERMAIN",
    "code_insee": 75106,
    "commune": "Paris 6e Arrondissement",
    "ecrans": 4,
    "fauteuils": 684,
    "geo": {
      "lon": 2.338995,
      "lat": 48.852138
    }
  },
  {
    "dep": 75,
    "nom": "NOUVEL ODEON",
    "adresse": "6 RUE DE L ECOLE DE MEDECINE",
    "code_insee": 75106,
    "commune": "Paris 6e Arrondissement",
    "ecrans": 1,
    "fauteuils": 119,
    "geo": {
      "lon": 2.341747,
      "lat": 48.850764
    }
  },
  {
    "dep": 75,
    "nom": "UGC ODEON",
    "adresse": "124 BD ST GERMAIN",
    "code_insee": 75106,
    "commune": "Paris 6e Arrondissement",
    "ecrans": 5,
    "fauteuils": 722,
    "geo": {
      "lon": 2.339834,
      "lat": 48.852353
    }
  },
  {
    "dep": 75,
    "nom": "ESPACE SAINT MICHEL",
    "adresse": "7 PLACE ST MICHEL",
    "code_insee": 75105,
    "commune": "Paris 5e Arrondissement",
    "ecrans": 2,
    "fauteuils": 210,
    "geo": {
      "lon": 2.344228,
      "lat": 48.853093
    }
  },
  {
    "dep": 75,
    "nom": "ECOLES CINEMA CLUB",
    "adresse": "23 RUE DES ECOLES",
    "code_insee": 75105,
    "commune": "Paris 5e Arrondissement",
    "ecrans": 2,
    "fauteuils": 200,
    "geo": {
      "lon": 2.348973,
      "lat": 48.848384
    }
  },
  {
    "dep": 75,
    "nom": "LE CINEMA DU PANTHEON",
    "adresse": "13 RUE VICTOR COUSIN",
    "code_insee": 75105,
    "commune": "Paris 5e Arrondissement",
    "ecrans": 1,
    "fauteuils": 200,
    "geo": {
      "lon": 2.342301,
      "lat": 48.847502
    }
  },
  {
    "dep": 75,
    "nom": "LE CHAMPO",
    "adresse": "51 RUE DES ECOLES",
    "code_insee": 75105,
    "commune": "Paris 5e Arrondissement",
    "ecrans": 2,
    "fauteuils": 240,
    "geo": {
      "lon": 2.343211,
      "lat": 48.849983
    }
  },
  {
    "dep": 75,
    "nom": "QUARTIER LATIN I",
    "adresse": "9 RUE CHAMPOLLION",
    "code_insee": 75105,
    "commune": "Paris 5e Arrondissement",
    "ecrans": 2,
    "fauteuils": 164,
    "geo": {
      "lon": 2.342788,
      "lat": 48.849504
    }
  },
  {
    "dep": 75,
    "nom": "STUDIO DES URSULINES",
    "adresse": "10 RUE DES URSULINES",
    "code_insee": 75105,
    "commune": "Paris 5e Arrondissement",
    "ecrans": 1,
    "fauteuils": 122,
    "geo": {
      "lon": 2.342044,
      "lat": 48.842733
    }
  },
  {
    "dep": 75,
    "nom": "REFLET MEDICIS 2",
    "adresse": "7 RUE CHAMPOLLION",
    "code_insee": 75105,
    "commune": "Paris 5e Arrondissement",
    "ecrans": 3,
    "fauteuils": 372,
    "geo": {
      "lon": 2.342836,
      "lat": 48.849591
    }
  },
  {
    "dep": 75,
    "nom": "EPEE DE BOIS",
    "adresse": "100 RUE MOUFFETARD",
    "code_insee": 75105,
    "commune": "Paris 5e Arrondissement",
    "ecrans": 2,
    "fauteuils": 140,
    "geo": {
      "lon": 2.34958,
      "lat": 48.841535
    }
  },
  {
    "dep": 75,
    "nom": "LE GRAND ACTION",
    "adresse": "5 RUE DES ECOLES",
    "code_insee": 75105,
    "commune": "Paris 5e Arrondissement",
    "ecrans": 2,
    "fauteuils": 346,
    "geo": {
      "lon": 2.352122,
      "lat": 48.847537
    }
  },
  {
    "dep": 75,
    "nom": "LES FAUVETTES",
    "adresse": "58 AVENUE DES GOBELINS",
    "code_insee": 75113,
    "commune": "Paris 13e Arrondissement",
    "ecrans": 5,
    "fauteuils": 645,
    "geo": {
      "lon": 2.353775,
      "lat": 48.833574
    }
  },
  {
    "dep": 75,
    "nom": "UGC  GOBELINS",
    "adresse": "66 BIS AV DES GOBELINS",
    "code_insee": 75113,
    "commune": "Paris 13e Arrondissement",
    "ecrans": 11,
    "fauteuils": 1138,
    "geo": {
      "lon": 2.354241,
      "lat": 48.832888
    }
  },
  {
    "dep": 75,
    "nom": "ESCURIAL",
    "adresse": "11 BD PORT ROYAL",
    "code_insee": 75113,
    "commune": "Paris 13e Arrondissement",
    "ecrans": 2,
    "fauteuils": 329,
    "geo": {
      "lon": 2.349632,
      "lat": 48.836817
    }
  },
  {
    "dep": 75,
    "nom": "MK2 GRAND PALAIS",
    "adresse": "COURS LA REINE PORTE C",
    "code_insee": 75108,
    "commune": "Paris 8e Arrondissement",
    "ecrans": 1,
    "fauteuils": 104,
    "geo": {
      "lon": 2.314116,
      "lat": 48.8649
    }
  },
  {
    "dep": 75,
    "nom": "LE LOUXOR",
    "adresse": "170 BOULEVARD DE MAGENTA",
    "code_insee": 75110,
    "commune": "Paris 10e Arrondissement",
    "ecrans": 3,
    "fauteuils": 556,
    "geo": {
      "lon": 2.349853,
      "lat": 48.883487
    }
  },
  {
    "dep": 75,
    "nom": "MK2 BIBLIOTHEQUE",
    "adresse": "128 A 162 AVENUE DE FRANCE",
    "code_insee": 75113,
    "commune": "Paris 13e Arrondissement",
    "ecrans": 16,
    "fauteuils": 2952,
    "geo": {
      "lon": 2.373922,
      "lat": 48.833718
    }
  },
  {
    "dep": 75,
    "nom": "MK2 A&E",
    "adresse": "15/43 QUAI FRANCOIS MAURIAC",
    "code_insee": 75113,
    "commune": "Paris 13e Arrondissement",
    "ecrans": 4,
    "fauteuils": 520,
    "geo": {
      "lon": 2.378615,
      "lat": 48.832993
    }
  },
  {
    "dep": 75,
    "nom": "PATHE BEAUGRENELLE",
    "adresse": "7 RUE LINOIS",
    "code_insee": 75115,
    "commune": "Paris 15e Arrondissement",
    "ecrans": 10,
    "fauteuils": 1962,
    "geo": {
      "lon": 2.282585,
      "lat": 48.848895
    }
  },
  {
    "dep": 75,
    "nom": "CLUB DE L ETOILE",
    "adresse": "14 RUE TROYON",
    "code_insee": 75117,
    "commune": "Paris 17e Arrondissement",
    "ecrans": 1,
    "fauteuils": 161,
    "geo": {
      "lon": 2.295345,
      "lat": 48.876113
    }
  },
  {
    "dep": 75,
    "nom": "LES 7 BATIGNOLLES CINEMOVIDA",
    "adresse": "ALLEE COLETTE HEILBRONNER",
    "code_insee": 75117,
    "commune": "Paris 17e Arrondissement",
    "ecrans": 7,
    "fauteuils": 1151,
    "geo": {
      "lon": 2.311503,
      "lat": 48.893315
    }
  },
  {
    "dep": 75,
    "nom": "MK2 QUAI DE LOIRE",
    "adresse": "5/19 QUAI DE LA LOIRE",
    "code_insee": 75119,
    "commune": "Paris 19e Arrondissement",
    "ecrans": 6,
    "fauteuils": 1108,
    "geo": {
      "lon": 2.374123,
      "lat": 48.885067
    }
  },
  {
    "dep": 75,
    "nom": "UGC CINE CITE PARIS 19",
    "adresse": "166 BOULEVARD MAC DONALD",
    "code_insee": 75119,
    "commune": "Paris 19e Arrondissement",
    "ecrans": 14,
    "fauteuils": 2790,
    "geo": {
      "lon": 2.376757,
      "lat": 48.898991
    }
  },
  {
    "dep": 75,
    "nom": "PATHE",
    "adresse": "30 AVENUE CORENTIN CARIOU",
    "code_insee": 75119,
    "commune": "Paris 19e Arrondissement",
    "ecrans": 16,
    "fauteuils": 2901,
    "geo": {
      "lon": 2.385181,
      "lat": 48.897016
    }
  },
  {
    "dep": 75,
    "nom": "CGR PARIS LILAS",
    "adresse": "PLACE DU MAQUIS DU VERCORS",
    "code_insee": 75120,
    "commune": "Paris 20e Arrondissement",
    "ecrans": 7,
    "fauteuils": 1394,
    "geo": {
      "lon": 2.406733,
      "lat": 48.852605
    }
  },
  {
    "dep": 94,
    "nom": "SALLE CHARLES CHAPLIN",
    "adresse": "ESPACE CULTUREL ALAIN POHER 7 AVENUE AUGUSTE DURU",
    "code_insee": 94001,
    "commune": "Ablon-sur-Seine",
    "ecrans": 1,
    "fauteuils": 188,
    "geo": {
      "lon": 2.420302,
      "lat": 48.724181
    }
  },
  {
    "dep": 78,
    "nom": "PANDORA",
    "adresse": "6 ALLEE SIMONE SIGNORET",
    "code_insee": 78005,
    "commune": "Achères",
    "ecrans": 3,
    "fauteuils": 257,
    "geo": {
      "lon": 2.067774,
      "lat": 48.960956
    }
  },
  {
    "dep": 94,
    "nom": "LE POLE CULTUREL",
    "adresse": "82 RUE MARCEL BOURDARIAS",
    "code_insee": 94002,
    "commune": "Alfortville",
    "ecrans": 1,
    "fauteuils": 410,
    "geo": {
      "lon": 2.422346,
      "lat": 48.807586
    }
  },
  {
    "dep": 92,
    "nom": "LE SELECT",
    "adresse": "10 AV DIVISION LECLERC",
    "code_insee": 92002,
    "commune": "Antony",
    "ecrans": 4,
    "fauteuils": 665,
    "geo": {
      "lon": 2.304782,
      "lat": 48.753029
    }
  },
  {
    "dep": 94,
    "nom": "JEAN VILAR",
    "adresse": "1 RUE PAUL SIGNAC",
    "code_insee": 94003,
    "commune": "Arcueil",
    "ecrans": 2,
    "fauteuils": 328,
    "geo": {
      "lon": 2.330702,
      "lat": 48.801352
    }
  },
  {
    "dep": 94,
    "nom": "MEGARAMA",
    "adresse": "8 AVENUE SALVADOR ALLENDE",
    "code_insee": 94003,
    "commune": "Arcueil",
    "ecrans": 6,
    "fauteuils": 781,
    "geo": {
      "lon": 2.328168,
      "lat": 48.810228
    }
  },
  {
    "dep": 95,
    "nom": "JEAN GABIN",
    "adresse": "12-14 BOULEVARD LEON FEIX",
    "code_insee": 95018,
    "commune": "Argenteuil",
    "ecrans": 1,
    "fauteuils": 128,
    "geo": {
      "lon": 2.249331,
      "lat": 48.946909
    }
  },
  {
    "dep": 95,
    "nom": "LE FIGUIER BLANC",
    "adresse": "3TER RUE GREGOIRE COLLAS",
    "code_insee": 95018,
    "commune": "Argenteuil",
    "ecrans": 3,
    "fauteuils": 826,
    "geo": {
      "lon": 2.24855,
      "lat": 48.943679
    }
  },
  {
    "dep": 91,
    "nom": "STARS",
    "adresse": "13 AV DU GENERAL DE GAULLE",
    "code_insee": 91021,
    "commune": "Arpajon",
    "ecrans": 5,
    "fauteuils": 829,
    "geo": {
      "lon": 2.250123,
      "lat": 48.590692
    }
  },
  {
    "dep": 92,
    "nom": "L ALCAZAR",
    "adresse": "1 RUE DE LA STATION",
    "code_insee": 92004,
    "commune": "Asnières-sur-Seine",
    "ecrans": 4,
    "fauteuils": 646,
    "geo": {
      "lon": 2.284046,
      "lat": 48.906327
    }
  },
  {
    "dep": 91,
    "nom": "CINEMA VENTURA",
    "adresse": "RUE SAMUEL DESBORDES",
    "code_insee": 91027,
    "commune": "Athis-Mons",
    "ecrans": 1,
    "fauteuils": 175,
    "geo": {
      "lon": 2.388137,
      "lat": 48.7102
    }
  },
  {
    "dep": 78,
    "nom": "PAUL GRIMAULT",
    "adresse": "1 AV DE LA DIVISION LECLERC",
    "code_insee": 78029,
    "commune": "Aubergenville",
    "ecrans": 1,
    "fauteuils": 169,
    "geo": {
      "lon": 1.855229,
      "lat": 48.9589
    }
  },
  {
    "dep": 93,
    "nom": "STUDIO",
    "adresse": "2 RUE EDOUARD POISSON",
    "code_insee": 93001,
    "commune": "Aubervilliers",
    "ecrans": 1,
    "fauteuils": 127,
    "geo": {
      "lon": 2.384966,
      "lat": 48.910534
    }
  },
  {
    "dep": 93,
    "nom": "THEATRE ET CINEMA JACQUES PREVERT",
    "adresse": "134 RUE ANATOLE FRANCE",
    "code_insee": 93005,
    "commune": "Aulnay-sous-Bois",
    "ecrans": 2,
    "fauteuils": 789,
    "geo": {
      "lon": 2.496291,
      "lat": 48.940586
    }
  },
  {
    "dep": 93,
    "nom": "UGC CINE CITE O'PARINOR",
    "adresse": "LE HAUT DE GALY",
    "code_insee": 93005,
    "commune": "Aulnay-sous-Bois",
    "ecrans": 14,
    "fauteuils": 2592,
    "geo": {
      "lon": 2.473606,
      "lat": 48.960325
    }
  },
  {
    "dep": 92,
    "nom": "THEATRE VICTOR HUGO",
    "adresse": "14 AV VICTOR HUGO",
    "code_insee": 92007,
    "commune": "Bagneux",
    "ecrans": 1,
    "fauteuils": 418,
    "geo": {
      "lon": 2.321692,
      "lat": 48.804045
    }
  },
  {
    "dep": 93,
    "nom": "LE CIN'HOCHE",
    "adresse": "6 RUE HOCHE",
    "code_insee": 93006,
    "commune": "Bagnolet",
    "ecrans": 2,
    "fauteuils": 288,
    "geo": {
      "lon": 2.417029,
      "lat": 48.869237
    }
  },
  {
    "dep": 91,
    "nom": "CINE TOILE",
    "adresse": "2 RUE DES COLOMBES",
    "code_insee": 91045,
    "commune": "Ballancourt-sur-Essonne",
    "ecrans": 1,
    "fauteuils": 189,
    "geo": {
      "lon": 2.388787,
      "lat": 48.528643
    }
  },
  {
    "dep": 95,
    "nom": "BEAUMONT PALACE",
    "adresse": "6 AV ANATOLE FRANCE",
    "code_insee": 95052,
    "commune": "Beaumont-sur-Oise",
    "ecrans": 1,
    "fauteuils": 353,
    "geo": {
      "lon": 2.283076,
      "lat": 49.141412
    }
  },
  {
    "dep": 78,
    "nom": "LA BARBACANE",
    "adresse": "PLACE DU 8 MAI 1945",
    "code_insee": 78062,
    "commune": "Beynes",
    "ecrans": 1,
    "fauteuils": 292,
    "geo": {
      "lon": 1.875104,
      "lat": 48.855732
    }
  },
  {
    "dep": 95,
    "nom": "THEATRE PAUL ELUARD",
    "adresse": "162 RUE MAURICE BERTEAUX",
    "code_insee": 95063,
    "commune": "Bezons",
    "ecrans": 2,
    "fauteuils": 598,
    "geo": {
      "lon": 2.207081,
      "lat": 48.931156
    }
  },
  {
    "dep": 93,
    "nom": "CINEMA LOUIS DAQUIN",
    "adresse": "76 RUE VICTOR HUGO",
    "code_insee": 93007,
    "commune": "Le Blanc-Mesnil",
    "ecrans": 3,
    "fauteuils": 447,
    "geo": {
      "lon": 2.457313,
      "lat": 48.941761
    }
  },
  {
    "dep": 93,
    "nom": "AUDITORIUM BOURSE TRAVAIL",
    "adresse": "11 RUE DU 8 MAI 1945",
    "code_insee": 93008,
    "commune": "Bobigny",
    "ecrans": 1,
    "fauteuils": 400,
    "geo": {
      "lon": 2.436542,
      "lat": 48.90951
    }
  },
  {
    "dep": 92,
    "nom": "JEAN RENOIR",
    "adresse": "RUE DU GENERAL LECLERC",
    "code_insee": 92009,
    "commune": "Bois-Colombes",
    "ecrans": 1,
    "fauteuils": 300,
    "geo": {
      "lon": 2.266897,
      "lat": 48.916548
    }
  },
  {
    "dep": 78,
    "nom": "LA GRANGE DE LA TREMBLAYE",
    "adresse": "RUE DU PARC",
    "code_insee": 78073,
    "commune": "Bois-d'Arcy",
    "ecrans": 1,
    "fauteuils": 338,
    "geo": {
      "lon": 2.023763,
      "lat": 48.800013
    }
  },
  {
    "dep": 94,
    "nom": "LE FORUM",
    "adresse": "PLACE DU FORUM",
    "code_insee": 94004,
    "commune": "Boissy-Saint-Léger",
    "ecrans": 1,
    "fauteuils": 114,
    "geo": {
      "lon": 2.502015,
      "lat": 48.754035
    }
  },
  {
    "dep": 93,
    "nom": "SALLE ANDRE MALRAUX",
    "adresse": "25 COURS DE LA REPUBLIQUE",
    "code_insee": 93010,
    "commune": "Bondy",
    "ecrans": 1,
    "fauteuils": 324,
    "geo": {
      "lon": 2.480089,
      "lat": 48.901598
    }
  },
  {
    "dep": 94,
    "nom": "GERARD PHILIPE",
    "adresse": "2 RUE PABLO NERUDA",
    "code_insee": 94011,
    "commune": "Bonneuil-sur-Marne",
    "ecrans": 1,
    "fauteuils": 245,
    "geo": {
      "lon": 2.486664,
      "lat": 48.774577
    }
  },
  {
    "dep": 92,
    "nom": "CINEMA LANDOWSKI",
    "adresse": "28 AVENUE ANDRE-MORIZET",
    "code_insee": 92012,
    "commune": "Boulogne-Billancourt",
    "ecrans": 1,
    "fauteuils": 154,
    "geo": {
      "lon": 2.239289,
      "lat": 48.83591
    }
  },
  {
    "dep": 92,
    "nom": "PATHE",
    "adresse": "26 RUE LE CORBUSIER",
    "code_insee": 92012,
    "commune": "Boulogne-Billancourt",
    "ecrans": 7,
    "fauteuils": 1492,
    "geo": {
      "lon": 2.239534,
      "lat": 48.837649
    }
  },
  {
    "dep": 93,
    "nom": "LE CINEMA",
    "adresse": "10 AVENUE FRANCIS DE PRESSENSE",
    "code_insee": 93013,
    "commune": "Le Bourget",
    "ecrans": 1,
    "fauteuils": 83,
    "geo": {
      "lon": 2.424858,
      "lat": 48.932361
    }
  },
  {
    "dep": 92,
    "nom": "AUDITORIUM DU CONSERVATOIRE",
    "adresse": "11 BD CARNOT",
    "code_insee": 92014,
    "commune": "Bourg-la-Reine",
    "ecrans": 1,
    "fauteuils": 177,
    "geo": {
      "lon": 2.317531,
      "lat": 48.778884
    }
  },
  {
    "dep": 91,
    "nom": "BUXY",
    "adresse": "CENTRE COMMERCIAL VAL D'YERRES 2",
    "code_insee": 91097,
    "commune": "Boussy-Saint-Antoine",
    "ecrans": 5,
    "fauteuils": 797,
    "geo": {
      "lon": 2.535014,
      "lat": 48.683571
    }
  },
  {
    "dep": 77,
    "nom": "LE RENAISSANCE",
    "adresse": "16 RUE DE L EGLISE",
    "code_insee": 77051,
    "commune": "Bray-sur-Seine",
    "ecrans": 1,
    "fauteuils": 105,
    "geo": {
      "lon": 3.237856,
      "lat": 48.415251
    }
  },
  {
    "dep": 91,
    "nom": "JEAN COCTEAU",
    "adresse": "3 RUE ANATOLE FRANCE",
    "code_insee": 91103,
    "commune": "Brétigny-sur-Orge",
    "ecrans": 2,
    "fauteuils": 368,
    "geo": {
      "lon": 2.303919,
      "lat": 48.608596
    }
  },
  {
    "dep": 77,
    "nom": "LES 4 VENTS",
    "adresse": "80 RUE DU GENERAL LECLERC",
    "code_insee": 77053,
    "commune": "Brie-Comte-Robert",
    "ecrans": 1,
    "fauteuils": 168,
    "geo": {
      "lon": 2.607228,
      "lat": 48.696652
    }
  },
  {
    "dep": 94,
    "nom": "LA PLEIADE",
    "adresse": "12 AVENUE COUSIN DE MERICOURT",
    "code_insee": 94016,
    "commune": "Cachan",
    "ecrans": 3,
    "fauteuils": 802,
    "geo": {
      "lon": 2.335316,
      "lat": 48.795796
    }
  },
  {
    "dep": 78,
    "nom": "CINEMA DU THEATRE",
    "adresse": "8 AVENUE CHARLES DE GAULLE",
    "code_insee": 78126,
    "commune": "La Celle-Saint-Cloud",
    "ecrans": 1,
    "fauteuils": 319,
    "geo": {
      "lon": 2.136047,
      "lat": 48.847416
    }
  },
  {
    "dep": 95,
    "nom": "UGC CINE CITE",
    "adresse": "8 PLACE DES 3 GARES",
    "code_insee": 95127,
    "commune": "Cergy",
    "ecrans": 14,
    "fauteuils": 2768,
    "geo": {
      "lon": 2.010977,
      "lat": 49.048453
    }
  },
  {
    "dep": 77,
    "nom": "JEAN GABIN",
    "adresse": "RUE PIERRE DE COUBERTIN",
    "code_insee": 77079,
    "commune": "Champagne-sur-Seine",
    "ecrans": 1,
    "fauteuils": 168,
    "geo": {
      "lon": 2.80515,
      "lat": 48.398755
    }
  },
  {
    "dep": 94,
    "nom": "STUDIO 66",
    "adresse": "66 RUE JEAN JAURES",
    "code_insee": 94017,
    "commune": "Champigny-sur-Marne",
    "ecrans": 5,
    "fauteuils": 944,
    "geo": {
      "lon": 2.508133,
      "lat": 48.814397
    }
  },
  {
    "dep": 92,
    "nom": "REX",
    "adresse": "364 AVE DE LA DIVISION LECLERC",
    "code_insee": 92019,
    "commune": "Châtenay-Malabry",
    "ecrans": 2,
    "fauteuils": 551,
    "geo": {
      "lon": 2.259825,
      "lat": 48.765842
    }
  },
  {
    "dep": 92,
    "nom": "CINEMA",
    "adresse": "7BIS RUE DE LA MAIRIE",
    "code_insee": 92020,
    "commune": "Châtillon",
    "ecrans": 1,
    "fauteuils": 226,
    "geo": {
      "lon": 2.288049,
      "lat": 48.800675
    }
  },
  {
    "dep": 78,
    "nom": "LOUIS JOUVET",
    "adresse": "3 PLACE MAURICE BERTEAUX",
    "code_insee": 78146,
    "commune": "Chatou",
    "ecrans": 2,
    "fauteuils": 459,
    "geo": {
      "lon": 2.156299,
      "lat": 48.886917
    }
  },
  {
    "dep": 92,
    "nom": "ATRIUM",
    "adresse": "3 PARVIS ROBERT SCHUMAN",
    "code_insee": 92022,
    "commune": "Chaville",
    "ecrans": 1,
    "fauteuils": 643,
    "geo": {
      "lon": 2.192579,
      "lat": 48.813094
    }
  },
  {
    "dep": 77,
    "nom": "COSMOS",
    "adresse": "22 AV DE LA RESISTANCE",
    "code_insee": 77108,
    "commune": "Chelles",
    "ecrans": 2,
    "fauteuils": 645,
    "geo": {
      "lon": 2.586341,
      "lat": 48.877872
    }
  },
  {
    "dep": 77,
    "nom": "GAUMONT DISNEY VILLAGE",
    "adresse": "1 ESPLANADE FRANCOIS TRUFFAUT",
    "code_insee": 77111,
    "commune": "Chessy",
    "ecrans": 15,
    "fauteuils": 3923,
    "geo": {
      "lon": 2.772675,
      "lat": 48.880488
    }
  },
  {
    "dep": 77,
    "nom": "STUDIO 31",
    "adresse": "31 PLACE D'ARIANE",
    "code_insee": 77111,
    "commune": "Chessy",
    "ecrans": 2,
    "fauteuils": 216,
    "geo": {
      "lon": 2.773682,
      "lat": 48.856412
    }
  },
  {
    "dep": 94,
    "nom": "SALLE ANDRE MALRAUX",
    "adresse": "102 AV DU GENERAL DE GAULLE",
    "code_insee": 94021,
    "commune": "Chevilly-Larue",
    "ecrans": 1,
    "fauteuils": 405,
    "geo": {
      "lon": 2.350955,
      "lat": 48.770432
    }
  },
  {
    "dep": 91,
    "nom": "FRANCOIS TRUFFAUT",
    "adresse": "2 RUE DE L ECOLE",
    "code_insee": 91161,
    "commune": "Chilly-Mazarin",
    "ecrans": 2,
    "fauteuils": 409,
    "geo": {
      "lon": 2.314917,
      "lat": 48.703333
    }
  },
  {
    "dep": 94,
    "nom": "SALLE PAUL ELUARD",
    "adresse": "4 AV DE VILLENEUVE ST GEORGES",
    "code_insee": 94022,
    "commune": "Choisy-le-Roi",
    "ecrans": 1,
    "fauteuils": 181,
    "geo": {
      "lon": 2.414699,
      "lat": 48.766383
    }
  },
  {
    "dep": 92,
    "nom": "CINEMA JEANNE MOREAU",
    "adresse": "22 RUE PAUL VAILLANT COUTURIER",
    "code_insee": 92023,
    "commune": "Clamart",
    "ecrans": 1,
    "fauteuils": 176,
    "geo": {
      "lon": 2.263801,
      "lat": 48.802513
    }
  },
  {
    "dep": 78,
    "nom": "ESPACE PHILIPPE NOIRET",
    "adresse": "PLACE CHARLES DE GAULLE",
    "code_insee": 78165,
    "commune": "Les Clayes-sous-Bois",
    "ecrans": 2,
    "fauteuils": 356,
    "geo": {
      "lon": 1.987156,
      "lat": 48.821274
    }
  },
  {
    "dep": 92,
    "nom": "CINEMA RUTEBEUF",
    "adresse": "16-18  ALLEES LEON-GAMBETTA",
    "code_insee": 92024,
    "commune": "Clichy",
    "ecrans": 1,
    "fauteuils": 549,
    "geo": {
      "lon": 2.309342,
      "lat": 48.90196
    }
  },
  {
    "dep": 92,
    "nom": "M J C THEATRE DE COLOMBES",
    "adresse": "96, 98 RUE ST DENIS",
    "code_insee": 92025,
    "commune": "Colombes",
    "ecrans": 1,
    "fauteuils": 322,
    "geo": {
      "lon": 2.250041,
      "lat": 48.923862
    }
  },
  {
    "dep": 92,
    "nom": "L'HELIOS",
    "adresse": "27 A 39 RUE DU BOURNARD",
    "code_insee": 92025,
    "commune": "Colombes",
    "ecrans": 4,
    "fauteuils": 477,
    "geo": {
      "lon": 2.255372,
      "lat": 48.923159
    }
  },
  {
    "dep": 77,
    "nom": "LA COUPOLE",
    "adresse": "RUE JEAN FRANCOIS MILLET",
    "code_insee": 77122,
    "commune": "Combs-la-Ville",
    "ecrans": 1,
    "fauteuils": 236,
    "geo": {
      "lon": 2.566711,
      "lat": 48.659579
    }
  },
  {
    "dep": 78,
    "nom": "PATHE",
    "adresse": "RUE DE L'HAUTIL",
    "code_insee": 78172,
    "commune": "Conflans-Sainte-Honorine",
    "ecrans": 13,
    "fauteuils": 3105,
    "geo": {
      "lon": 2.077668,
      "lat": 49.004829
    }
  },
  {
    "dep": 91,
    "nom": "ARCEL",
    "adresse": "15 PLACE LEON CASSE",
    "code_insee": 91174,
    "commune": "Corbeil-Essonnes",
    "ecrans": 3,
    "fauteuils": 380,
    "geo": {
      "lon": 2.469302,
      "lat": 48.603813
    }
  },
  {
    "dep": 95,
    "nom": "THEATRE DU CORMIER",
    "adresse": "123 RUE DE SAINT-GERMAIN",
    "code_insee": 95176,
    "commune": "Cormeilles-en-Parisis",
    "ecrans": 1,
    "fauteuils": 307,
    "geo": {
      "lon": 2.189151,
      "lat": 48.959824
    }
  },
  {
    "dep": 77,
    "nom": "HEMISPHERE THEATER",
    "adresse": "23 RUE MARCEL CLAVIER",
    "code_insee": 77131,
    "commune": "Coulommiers",
    "ecrans": 4,
    "fauteuils": 568,
    "geo": {
      "lon": 3.090876,
      "lat": 48.809696
    }
  },
  {
    "dep": 92,
    "nom": "CAMILLE ST SAENS",
    "adresse": "15 BOULEVARD ARISTIDE BRIAND",
    "code_insee": 92026,
    "commune": "Courbevoie",
    "ecrans": 1,
    "fauteuils": 360,
    "geo": {
      "lon": 2.259136,
      "lat": 48.899883
    }
  },
  {
    "dep": 92,
    "nom": "ABEL GANCE",
    "adresse": "184 BD ST DENIS",
    "code_insee": 92026,
    "commune": "Courbevoie",
    "ecrans": 1,
    "fauteuils": 139,
    "geo": {
      "lon": 2.271867,
      "lat": 48.901327
    }
  },
  {
    "dep": 93,
    "nom": "L ETOILE",
    "adresse": "1 ALLEE DU PROGRES",
    "code_insee": 93027,
    "commune": "La Courneuve",
    "ecrans": 1,
    "fauteuils": 195,
    "geo": {
      "lon": 2.391627,
      "lat": 48.926821
    }
  },
  {
    "dep": 94,
    "nom": "LA LUCARNE MJC",
    "adresse": "100 RUE JULIETTE SAVAR",
    "code_insee": 94028,
    "commune": "Créteil",
    "ecrans": 1,
    "fauteuils": 92,
    "geo": {
      "lon": 2.466468,
      "lat": 48.777428
    }
  },
  {
    "dep": 94,
    "nom": "CINEMA DU PALAIS",
    "adresse": "40 ALLEE PARMENTIER",
    "code_insee": 94028,
    "commune": "Créteil",
    "ecrans": 3,
    "fauteuils": 490,
    "geo": {
      "lon": 2.444158,
      "lat": 48.786063
    }
  },
  {
    "dep": 77,
    "nom": "PATHE DAMMARIE",
    "adresse": "824 AVENUE DU LYS",
    "code_insee": 77152,
    "commune": "Dammarie-les-Lys",
    "ecrans": 10,
    "fauteuils": 2181,
    "geo": {
      "lon": 2.627798,
      "lat": 48.517401
    }
  },
  {
    "dep": 95,
    "nom": "ESPACE ERMITAGE",
    "adresse": "ALLEE STE THERESE",
    "code_insee": 95199,
    "commune": "Domont",
    "ecrans": 1,
    "fauteuils": 282,
    "geo": {
      "lon": 2.333691,
      "lat": 49.02987
    }
  },
  {
    "dep": 91,
    "nom": "PARTERRE",
    "adresse": "SQUARE DE LAC MEGANTIC",
    "code_insee": 91200,
    "commune": "Dourdan",
    "ecrans": 2,
    "fauteuils": 227,
    "geo": {
      "lon": 2.015215,
      "lat": 48.528741
    }
  },
  {
    "dep": 93,
    "nom": "ESPACE CULTUREL DU PARC",
    "adresse": "PLACE MAURICE NILES",
    "code_insee": 93029,
    "commune": "Drancy",
    "ecrans": 1,
    "fauteuils": 329,
    "geo": {
      "lon": 2.438309,
      "lat": 48.927466
    }
  },
  {
    "dep": 95,
    "nom": "L'ORANGE BLEUE",
    "adresse": "7 RUE JEAN MERMOZ",
    "code_insee": 95203,
    "commune": "Eaubonne",
    "ecrans": 1,
    "fauteuils": 345,
    "geo": {
      "lon": 2.278288,
      "lat": 48.992968
    }
  },
  {
    "dep": 78,
    "nom": "GRENOUILLE",
    "adresse": "CENTRE COMMERCIAL DES 7 MARES",
    "code_insee": 78208,
    "commune": "Élancourt",
    "ecrans": 3,
    "fauteuils": 348,
    "geo": {
      "lon": 1.949214,
      "lat": 48.766594
    }
  },
  {
    "dep": 95,
    "nom": "FRANCAIS",
    "adresse": "38 RUE DU GENERAL DE GAULLE",
    "code_insee": 95210,
    "commune": "Enghien-les-Bains",
    "ecrans": 5,
    "fauteuils": 1263,
    "geo": {
      "lon": 2.307185,
      "lat": 48.970841
    }
  },
  {
    "dep": 95,
    "nom": "CENTRE DES ARTS",
    "adresse": "12-16, RUE DE LA LIBERATION",
    "code_insee": 95210,
    "commune": "Enghien-les-Bains",
    "ecrans": 1,
    "fauteuils": 320,
    "geo": {
      "lon": 2.305204,
      "lat": 48.971934
    }
  },
  {
    "dep": 93,
    "nom": "SALLE SERGE GAINSBOURG",
    "adresse": "RUE DU GENERAL JULIEN",
    "code_insee": 93031,
    "commune": "Épinay-sur-Seine",
    "ecrans": 1,
    "fauteuils": 180,
    "geo": {
      "lon": 2.312115,
      "lat": 48.95411
    }
  },
  {
    "dep": 93,
    "nom": "MEGA CGR",
    "adresse": "5 AVENUE DU MARECHAL  JOFFRE",
    "code_insee": 93031,
    "commune": "Épinay-sur-Seine",
    "ecrans": 12,
    "fauteuils": 2470,
    "geo": {
      "lon": 2.301996,
      "lat": 48.957859
    }
  },
  {
    "dep": 95,
    "nom": "PIERRE FRESNAY",
    "adresse": "3 RUE SAINT FLAIVE",
    "code_insee": 95219,
    "commune": "Ermont",
    "ecrans": 1,
    "fauteuils": 400,
    "geo": {
      "lon": 2.259906,
      "lat": 48.988575
    }
  },
  {
    "dep": 91,
    "nom": "LA ROTONDE A",
    "adresse": "102 RUE SAINT JACQUES",
    "code_insee": 91223,
    "commune": "Étampes",
    "ecrans": 3,
    "fauteuils": 338,
    "geo": {
      "lon": 2.155867,
      "lat": 48.433642
    }
  },
  {
    "dep": 91,
    "nom": "CINETAMPES",
    "adresse": "PLACE GEOFFROY ST HILAIRE",
    "code_insee": 91223,
    "commune": "Étampes",
    "ecrans": 1,
    "fauteuils": 146,
    "geo": {
      "lon": 2.157598,
      "lat": 48.434287
    }
  },
  {
    "dep": 91,
    "nom": "MEGA CGR",
    "adresse": "PLACE DE L'AGORA - CE 169",
    "code_insee": 91228,
    "commune": "Évry",
    "ecrans": 10,
    "fauteuils": 2052,
    "geo": {
      "lon": 2.429517,
      "lat": 48.627929
    }
  },
  {
    "dep": 77,
    "nom": "ERMITAGE",
    "adresse": "6 RUE DE FRANCE",
    "code_insee": 77186,
    "commune": "Fontainebleau",
    "ecrans": 5,
    "fauteuils": 944,
    "geo": {
      "lon": 2.699594,
      "lat": 48.404394
    }
  },
  {
    "dep": 77,
    "nom": "CINEPARADIS",
    "adresse": "10 AVENUE MARECHAL DE VILLARS",
    "code_insee": 77186,
    "commune": "Fontainebleau",
    "ecrans": 6,
    "fauteuils": 1080,
    "geo": {
      "lon": 2.71613,
      "lat": 48.400175
    }
  },
  {
    "dep": 92,
    "nom": "LE SCARRON",
    "adresse": "8 AV. JEANNE ET MAURICE DOLIVET",
    "code_insee": 92032,
    "commune": "Fontenay-aux-Roses",
    "ecrans": 1,
    "fauteuils": 198,
    "geo": {
      "lon": 2.289748,
      "lat": 48.791543
    }
  },
  {
    "dep": 78,
    "nom": "THEATRE DE FONTENAY",
    "adresse": "PLACE DU 8 MAI 1945",
    "code_insee": 78242,
    "commune": "Fontenay-le-Fleury",
    "ecrans": 1,
    "fauteuils": 346,
    "geo": {
      "lon": 2.045243,
      "lat": 48.811271
    }
  },
  {
    "dep": 94,
    "nom": "LE KOSMOS",
    "adresse": "243TER AVENUE DE LA REPUBLIQUE",
    "code_insee": 94033,
    "commune": "Fontenay-sous-Bois",
    "ecrans": 1,
    "fauteuils": 190,
    "geo": {
      "lon": 2.461111,
      "lat": 48.852329
    }
  },
  {
    "dep": 95,
    "nom": "CINEMA DE L YSIEUX",
    "adresse": "PLACE JEAN MOULIN",
    "code_insee": 95250,
    "commune": "Fosses",
    "ecrans": 1,
    "fauteuils": 195,
    "geo": {
      "lon": 2.524882,
      "lat": 49.099464
    }
  },
  {
    "dep": 95,
    "nom": "CINE HENRI LANGLOIS",
    "adresse": "32 BIS RUE DE LA STATION",
    "code_insee": 95252,
    "commune": "Franconville",
    "ecrans": 2,
    "fauteuils": 518,
    "geo": {
      "lon": 2.232576,
      "lat": 48.988437
    }
  },
  {
    "dep": 94,
    "nom": "M J C",
    "adresse": "2 AV DU PARC DES SPORTS",
    "code_insee": 94034,
    "commune": "Fresnes",
    "ecrans": 1,
    "fauteuils": 158,
    "geo": {
      "lon": 2.313077,
      "lat": 48.752796
    }
  },
  {
    "dep": 93,
    "nom": "THEATRE ANDRE MALRAUX",
    "adresse": "1 BIS RUE GUILLEMETEAU",
    "code_insee": 93032,
    "commune": "Gagny",
    "ecrans": 1,
    "fauteuils": 450,
    "geo": {
      "lon": 2.529952,
      "lat": 48.884043
    }
  },
  {
    "dep": 92,
    "nom": "CINE GARCHES",
    "adresse": "86 GRANDE RUE",
    "code_insee": 92033,
    "commune": "Garches",
    "ecrans": 2,
    "fauteuils": 434,
    "geo": {
      "lon": 2.188722,
      "lat": 48.844239
    }
  },
  {
    "dep": 95,
    "nom": "JACQUES BREL A",
    "adresse": "PLACE DE L'HOTEL DE VILLE",
    "code_insee": 95268,
    "commune": "Garges-lès-Gonesse",
    "ecrans": 1,
    "fauteuils": 225,
    "geo": {
      "lon": 2.399817,
      "lat": 48.971945
    }
  },
  {
    "dep": 92,
    "nom": "CINEMA JEAN VIGO",
    "adresse": "1 RUE PIERRE ET MARIE CURIE",
    "code_insee": 92036,
    "commune": "Gennevilliers",
    "ecrans": 2,
    "fauteuils": 290,
    "geo": {
      "lon": 2.293206,
      "lat": 48.928469
    }
  },
  {
    "dep": 91,
    "nom": "LE CENTRAL",
    "adresse": "SQUARE DE LA MAIRIE",
    "code_insee": 91272,
    "commune": "Gif-sur-Yvette",
    "ecrans": 1,
    "fauteuils": 155,
    "geo": {
      "lon": 2.13387,
      "lat": 48.701701
    }
  },
  {
    "dep": 95,
    "nom": "CINE THEATRE JACQUES PREVERT",
    "adresse": "PLACE AIME-CESAIRE",
    "code_insee": 95277,
    "commune": "Gonesse",
    "ecrans": 1,
    "fauteuils": 223,
    "geo": {
      "lon": 2.428131,
      "lat": 48.999982
    }
  },
  {
    "dep": 95,
    "nom": "THEATRE SARAH BERNHARDT",
    "adresse": "82 BD PAUL VAILLANT COUTURIER",
    "code_insee": 95280,
    "commune": "Goussainville",
    "ecrans": 1,
    "fauteuils": 562,
    "geo": {
      "lon": 2.471796,
      "lat": 49.03242
    }
  },
  {
    "dep": 94,
    "nom": "LA TOURNELLE",
    "adresse": "14 RUE DISPAN",
    "code_insee": 94038,
    "commune": "L' Haÿ-les-Roses",
    "ecrans": 1,
    "fauteuils": 274,
    "geo": {
      "lon": 2.339014,
      "lat": 48.779749
    }
  },
  {
    "dep": 95,
    "nom": "LE CONTI",
    "adresse": "PLACE DU PATIS",
    "code_insee": 95313,
    "commune": "L' Isle-Adam",
    "ecrans": 5,
    "fauteuils": 739,
    "geo": {
      "lon": 2.211976,
      "lat": 49.110771
    }
  },
  {
    "dep": 92,
    "nom": "CINE D ISSY",
    "adresse": "MAIL RAYMOND MENAND",
    "code_insee": 92040,
    "commune": "Issy-les-Moulineaux",
    "ecrans": 1,
    "fauteuils": 376,
    "geo": {
      "lon": 2.271161,
      "lat": 48.825247
    }
  },
  {
    "dep": 91,
    "nom": "0SALLE GEORGES BRASSENS",
    "adresse": "SALLE GEORGES BRASSENS",
    "code_insee": 91315,
    "commune": "Itteville",
    "ecrans": 1,
    "fauteuils": 0,
    "geo": {
      "lon": 2.341767,
      "lat": 48.515193
    }
  },
  {
    "dep": 94,
    "nom": "LE LUXY",
    "adresse": "77 AV GEORGES GOSNAT",
    "code_insee": 94041,
    "commune": "Ivry-sur-Seine",
    "ecrans": 2,
    "fauteuils": 507,
    "geo": {
      "lon": 2.389338,
      "lat": 48.81362
    }
  },
  {
    "dep": 94,
    "nom": "PATHE",
    "adresse": "5 RUE FRANCOIS MITTERRAND",
    "code_insee": 94041,
    "commune": "Ivry-sur-Seine",
    "ecrans": 14,
    "fauteuils": 3830,
    "geo": {
      "lon": 2.387803,
      "lat": 48.824074
    }
  },
  {
    "dep": 94,
    "nom": "SALLE PIERRE ET JACQUES PREVERT (EX -SALLE DES CONGRES)",
    "adresse": "RUE DE PARIS",
    "code_insee": 94042,
    "commune": "Joinville-le-Pont",
    "ecrans": 1,
    "fauteuils": 300,
    "geo": {
      "lon": 2.468136,
      "lat": 48.816711
    }
  },
  {
    "dep": 95,
    "nom": "CENTRE CULTUREL",
    "adresse": "96 AVENUE DES BRUZACQUES",
    "code_insee": 95323,
    "commune": "Jouy-le-Moutier",
    "ecrans": 1,
    "fauteuils": 346,
    "geo": {
      "lon": 2.043572,
      "lat": 49.011314
    }
  },
  {
    "dep": 91,
    "nom": "CINEMA AGNES VARDA",
    "adresse": "37-39 GRANDE RUE",
    "code_insee": 91326,
    "commune": "Juvisy-sur-Orge",
    "ecrans": 1,
    "fauteuils": 123,
    "geo": {
      "lon": 2.376314,
      "lat": 48.688996
    }
  },
  {
    "dep": 77,
    "nom": "CINEMA LE CINQ",
    "adresse": "5 RUE DELAMBRE",
    "code_insee": 77243,
    "commune": "Lagny-sur-Marne",
    "ecrans": 3,
    "fauteuils": 492,
    "geo": {
      "lon": 2.706124,
      "lat": 48.879604
    }
  },
  {
    "dep": 92,
    "nom": "PATHE",
    "adresse": "28 RUE D'ALSACE",
    "code_insee": 92044,
    "commune": "Levallois-Perret",
    "ecrans": 8,
    "fauteuils": 1538,
    "geo": {
      "lon": 2.296363,
      "lat": 48.891726
    }
  },
  {
    "dep": 77,
    "nom": "PATHE",
    "adresse": "3 ALLEE DU PREAMBULE",
    "code_insee": 77251,
    "commune": "Lieusaint",
    "ecrans": 17,
    "fauteuils": 3790,
    "geo": {
      "lon": 2.547927,
      "lat": 48.616119
    }
  },
  {
    "dep": 93,
    "nom": "THEATRE DU GARDE CHASSE",
    "adresse": "2 AVENUE WALDECK ROUSSEAU",
    "code_insee": 93045,
    "commune": "Les Lilas",
    "ecrans": 1,
    "fauteuils": 308,
    "geo": {
      "lon": 2.419546,
      "lat": 48.881921
    }
  },
  {
    "dep": 94,
    "nom": "ATELIER BARBARA",
    "adresse": "22-24 RUE ALSACE LORRAINE",
    "code_insee": 94044,
    "commune": "Limeil-Brévannes",
    "ecrans": 1,
    "fauteuils": 165,
    "geo": {
      "lon": 2.503331,
      "lat": 48.744182
    }
  },
  {
    "dep": 93,
    "nom": "CINE MUNICIPAL YVES MONTAND",
    "adresse": "36 RUE EUGENE MASSE",
    "code_insee": 93046,
    "commune": "Livry-Gargan",
    "ecrans": 1,
    "fauteuils": 264,
    "geo": {
      "lon": 2.545121,
      "lat": 48.92579
    }
  },
  {
    "dep": 91,
    "nom": "THEATRE DE LONGJUMEAU",
    "adresse": "20 AVENUE DU GENERAL DE GAULLE",
    "code_insee": 91345,
    "commune": "Longjumeau",
    "ecrans": 1,
    "fauteuils": 862,
    "geo": {
      "lon": 2.313256,
      "lat": 48.679684
    }
  },
  {
    "dep": 94,
    "nom": "THEATRE CLAUDE DEBUSSY",
    "adresse": "116 AVENUE DU GENERAL DE GAULLE",
    "code_insee": 94046,
    "commune": "Maisons-Alfort",
    "ecrans": 1,
    "fauteuils": 406,
    "geo": {
      "lon": 2.430493,
      "lat": 48.801474
    }
  },
  {
    "dep": 78,
    "nom": "L'ATALANTE",
    "adresse": "48 RUE DU PRIEURE",
    "code_insee": 78358,
    "commune": "Maisons-Laffitte",
    "ecrans": 1,
    "fauteuils": 163,
    "geo": {
      "lon": 2.147062,
      "lat": 48.946355
    }
  },
  {
    "dep": 92,
    "nom": "MARCEL PAGNOL",
    "adresse": "17 RUE BERANGER",
    "code_insee": 92046,
    "commune": "Malakoff",
    "ecrans": 1,
    "fauteuils": 198,
    "geo": {
      "lon": 2.302756,
      "lat": 48.820911
    }
  },
  {
    "dep": 78,
    "nom": "MEGA CGR",
    "adresse": "PLACE HENRI DUNANT",
    "code_insee": 78361,
    "commune": "Mantes-la-Jolie",
    "ecrans": 9,
    "fauteuils": 2053,
    "geo": {
      "lon": 1.715981,
      "lat": 48.989664
    }
  },
  {
    "dep": 78,
    "nom": "LE CHAPLIN",
    "adresse": "PLACE MENDES FRANCE",
    "code_insee": 78361,
    "commune": "Mantes-la-Jolie",
    "ecrans": 1,
    "fauteuils": 300,
    "geo": {
      "lon": 1.683456,
      "lat": 49.000101
    }
  },
  {
    "dep": 91,
    "nom": "ATMOSPHERE",
    "adresse": "PARC DES CELESTINS",
    "code_insee": 91363,
    "commune": "Marcoussis",
    "ecrans": 1,
    "fauteuils": 231,
    "geo": {
      "lon": 2.222592,
      "lat": 48.642026
    }
  },
  {
    "dep": 78,
    "nom": "FONTENELLE",
    "adresse": "10 RUE CARNOT",
    "code_insee": 78372,
    "commune": "Marly-le-Roi",
    "ecrans": 2,
    "fauteuils": 336,
    "geo": {
      "lon": 2.095564,
      "lat": 48.871284
    }
  },
  {
    "dep": 91,
    "nom": "CINEMASSY",
    "adresse": "PLACE DE FRANCE",
    "code_insee": 91377,
    "commune": "Massy",
    "ecrans": 3,
    "fauteuils": 417,
    "geo": {
      "lon": 2.288638,
      "lat": 48.732679
    }
  },
  {
    "dep": 78,
    "nom": "LES 2 SCENES",
    "adresse": "PLACE HENRI DUNANT",
    "code_insee": 78380,
    "commune": "Maule",
    "ecrans": 1,
    "fauteuils": 102,
    "geo": {
      "lon": 1.821165,
      "lat": 48.916554
    }
  },
  {
    "dep": 77,
    "nom": "UGC MAJESTIC",
    "adresse": "11 PLACE HENRI IV",
    "code_insee": 77284,
    "commune": "Meaux",
    "ecrans": 7,
    "fauteuils": 1129,
    "geo": {
      "lon": 2.882959,
      "lat": 48.95945
    }
  },
  {
    "dep": 77,
    "nom": "VARIETES",
    "adresse": "20 BD CHAMBLAIN",
    "code_insee": 77288,
    "commune": "Melun",
    "ecrans": 3,
    "fauteuils": 566,
    "geo": {
      "lon": 2.6548,
      "lat": 48.533449
    }
  },
  {
    "dep": 91,
    "nom": "CINEMA CONFLUENCES MENNECY",
    "adresse": "ZAC MONTVRAIN II",
    "code_insee": 91386,
    "commune": "Mennecy",
    "ecrans": 3,
    "fauteuils": 324,
    "geo": {
      "lon": 2.441479,
      "lat": 48.564849
    }
  },
  {
    "dep": 95,
    "nom": "LA LUCIOLE",
    "adresse": "1 ROUTE DE PONTOISE",
    "code_insee": 95394,
    "commune": "Méry-sur-Oise",
    "ecrans": 1,
    "fauteuils": 228,
    "geo": {
      "lon": 2.170288,
      "lat": 49.060326
    }
  },
  {
    "dep": 92,
    "nom": "CENTRE D ART ET DE CULTURE",
    "adresse": "15 BOULEVARD DES NATIONS-UNIES",
    "code_insee": 92048,
    "commune": "Meudon",
    "ecrans": 1,
    "fauteuils": 458,
    "geo": {
      "lon": 2.235774,
      "lat": 48.81334
    }
  },
  {
    "dep": 92,
    "nom": "ESPACE CULTUREL ROBERT-DOISNEAU",
    "adresse": "16 AV DE LATTRE DE TASSIGNY",
    "code_insee": 92048,
    "commune": "Meudon",
    "ecrans": 1,
    "fauteuils": 268,
    "geo": {
      "lon": 2.23254,
      "lat": 48.7873
    }
  },
  {
    "dep": 77,
    "nom": "CONCORDE",
    "adresse": "4 AV DES BOSQUETS",
    "code_insee": 77294,
    "commune": "Mitry-Mory",
    "ecrans": 1,
    "fauteuils": 210,
    "geo": {
      "lon": 2.603083,
      "lat": 48.956929
    }
  },
  {
    "dep": 77,
    "nom": "LA ROTONDE",
    "adresse": "PLACE DU 14 JUILLET",
    "code_insee": 77296,
    "commune": "Moissy-Cramayel",
    "ecrans": 1,
    "fauteuils": 349,
    "geo": {
      "lon": 2.589982,
      "lat": 48.628281
    }
  },
  {
    "dep": 77,
    "nom": "CINEMA  11X20 14",
    "adresse": "21 RUE DE LA CROIX-ROUGE",
    "code_insee": 77298,
    "commune": "Mons-en-Montois",
    "ecrans": 1,
    "fauteuils": 48,
    "geo": {
      "lon": 3.148397,
      "lat": 48.490092
    }
  },
  {
    "dep": 91,
    "nom": "LE CYRANO",
    "adresse": "114 AVENUE DE LA REPUBLIQUE",
    "code_insee": 91421,
    "commune": "Montgeron",
    "ecrans": 1,
    "fauteuils": 329,
    "geo": {
      "lon": 2.46109,
      "lat": 48.703763
    }
  },
  {
    "dep": 78,
    "nom": "JACQUES BREL",
    "adresse": "RUE DE LA MARE AUX CARATS",
    "code_insee": 78423,
    "commune": "Montigny-le-Bretonneux",
    "ecrans": 1,
    "fauteuils": 282,
    "geo": {
      "lon": 2.03446,
      "lat": 48.77004
    }
  },
  {
    "dep": 95,
    "nom": "CENTRE PICASSO",
    "adresse": "RUE GUY DE MAUPASSANT",
    "code_insee": 95424,
    "commune": "Montigny-lès-Cormeilles",
    "ecrans": 1,
    "fauteuils": 304,
    "geo": {
      "lon": 2.200873,
      "lat": 48.997001
    }
  },
  {
    "dep": 95,
    "nom": "L'EDEN",
    "adresse": "5 RUE DE PONTOISE",
    "code_insee": 95428,
    "commune": "Montmorency",
    "ecrans": 2,
    "fauteuils": 222,
    "geo": {
      "lon": 2.318091,
      "lat": 48.988818
    }
  },
  {
    "dep": 93,
    "nom": "MELIES",
    "adresse": "PLACE JEAN JAURES",
    "code_insee": 93048,
    "commune": "Montreuil",
    "ecrans": 6,
    "fauteuils": 1139,
    "geo": {
      "lon": 2.442502,
      "lat": 48.862437
    }
  },
  {
    "dep": 92,
    "nom": "CINE MONTROUGE",
    "adresse": "88 RUE RACINE",
    "code_insee": 92049,
    "commune": "Montrouge",
    "ecrans": 1,
    "fauteuils": 154,
    "geo": {
      "lon": 2.311441,
      "lat": 48.813222
    }
  },
  {
    "dep": 78,
    "nom": "FREDERIC DARD CLUB A",
    "adresse": "77 RUE PAUL DOUMER",
    "code_insee": 78440,
    "commune": "Les Mureaux",
    "ecrans": 2,
    "fauteuils": 360,
    "geo": {
      "lon": 1.910246,
      "lat": 48.993874
    }
  },
  {
    "dep": 77,
    "nom": "LA BERGERIE",
    "adresse": "COUR EMILE ZOLA",
    "code_insee": 77327,
    "commune": "Nangis",
    "ecrans": 1,
    "fauteuils": 132,
    "geo": {
      "lon": 3.0133,
      "lat": 48.555127
    }
  },
  {
    "dep": 92,
    "nom": "LES LUMIERES",
    "adresse": "49 RUE MAURICE THOREZ",
    "code_insee": 92050,
    "commune": "Nanterre",
    "ecrans": 4,
    "fauteuils": 660,
    "geo": {
      "lon": 2.195729,
      "lat": 48.892601
    }
  },
  {
    "dep": 92,
    "nom": "CAP CINEMA NANTERRE",
    "adresse": "200 ALLEE DE CORSE",
    "code_insee": 92050,
    "commune": "Nanterre",
    "ecrans": 10,
    "fauteuils": 1525,
    "geo": {
      "lon": 2.21295,
      "lat": 48.900167
    }
  },
  {
    "dep": 77,
    "nom": "MELIES",
    "adresse": "9 RUE BEZOUT",
    "code_insee": 77333,
    "commune": "Nemours",
    "ecrans": 3,
    "fauteuils": 507,
    "geo": {
      "lon": 2.695374,
      "lat": 48.265654
    }
  },
  {
    "dep": 93,
    "nom": "LA FAUVETTE",
    "adresse": "21 AV DANIEL PERDRIGE",
    "code_insee": 93049,
    "commune": "Neuilly-Plaisance",
    "ecrans": 1,
    "fauteuils": 146,
    "geo": {
      "lon": 2.510505,
      "lat": 48.87311
    }
  },
  {
    "dep": 92,
    "nom": "LE VILLAGE I",
    "adresse": "4 RUE DE CHEZY",
    "code_insee": 92051,
    "commune": "Neuilly-sur-Seine",
    "ecrans": 2,
    "fauteuils": 500,
    "geo": {
      "lon": 2.268222,
      "lat": 48.885364
    }
  },
  {
    "dep": 94,
    "nom": "ROYAL PALACE",
    "adresse": "165 GRANDE RUE CHARLES DE GAULLE",
    "code_insee": 94052,
    "commune": "Nogent-sur-Marne",
    "ecrans": 6,
    "fauteuils": 815,
    "geo": {
      "lon": 2.489437,
      "lat": 48.838331
    }
  },
  {
    "dep": 77,
    "nom": "LA FERME DU BUISSON",
    "adresse": "ALLEE DE LA FERME",
    "code_insee": 77337,
    "commune": "Noisiel",
    "ecrans": 2,
    "fauteuils": 386,
    "geo": {
      "lon": 2.624254,
      "lat": 48.84468
    }
  },
  {
    "dep": 93,
    "nom": "UGC CINE CITE",
    "adresse": "CENTRE COMMERCIAL LES ARCADES",
    "code_insee": 93051,
    "commune": "Noisy-le-Grand",
    "ecrans": 10,
    "fauteuils": 1797,
    "geo": {
      "lon": 2.547002,
      "lat": 48.840097
    }
  },
  {
    "dep": 93,
    "nom": "LE BIJOU",
    "adresse": "PLACE DE LA LIBERATION",
    "code_insee": 93051,
    "commune": "Noisy-le-Grand",
    "ecrans": 3,
    "fauteuils": 416,
    "geo": {
      "lon": 2.552482,
      "lat": 48.849023
    }
  },
  {
    "dep": 94,
    "nom": "SALLE ARAGON",
    "adresse": "1 PLACE DU FER A CHEVAL",
    "code_insee": 94054,
    "commune": "Orly",
    "ecrans": 1,
    "fauteuils": 388,
    "geo": {
      "lon": 2.395558,
      "lat": 48.742445
    }
  },
  {
    "dep": 94,
    "nom": "CENTRE CULTUREL  ORMESSON",
    "adresse": "22 AV WLADIMIR D ORMESSON",
    "code_insee": 94055,
    "commune": "Ormesson-sur-Marne",
    "ecrans": 1,
    "fauteuils": 358,
    "geo": {
      "lon": 2.544935,
      "lat": 48.786098
    }
  },
  {
    "dep": 91,
    "nom": "CINEMA JACQUES TATI",
    "adresse": "14 AVENUE SAINT LAURENT",
    "code_insee": 91471,
    "commune": "Orsay",
    "ecrans": 3,
    "fauteuils": 339,
    "geo": {
      "lon": 2.189727,
      "lat": 48.698781
    }
  },
  {
    "dep": 77,
    "nom": "LE PIERRE BRASSEUR",
    "adresse": "103 AV DU GENERAL DE GAULLE",
    "code_insee": 77350,
    "commune": "Ozoir-la-Ferrière",
    "ecrans": 1,
    "fauteuils": 171,
    "geo": {
      "lon": 2.664715,
      "lat": 48.762604
    }
  },
  {
    "dep": 91,
    "nom": "CINEPAL",
    "adresse": "AVENUE DU 8 MAI 1945",
    "code_insee": 91477,
    "commune": "Palaiseau",
    "ecrans": 4,
    "fauteuils": 545,
    "geo": {
      "lon": 2.243459,
      "lat": 48.71031
    }
  },
  {
    "dep": 93,
    "nom": "CINE 104",
    "adresse": "104 AV JEAN LOLIVE",
    "code_insee": 93055,
    "commune": "Pantin",
    "ecrans": 3,
    "fauteuils": 457,
    "geo": {
      "lon": 2.408907,
      "lat": 48.89218
    }
  },
  {
    "dep": 91,
    "nom": "SALLE DES FETES",
    "adresse": "1, RUE ALSACE-LORRAINE",
    "code_insee": 91479,
    "commune": "Paray-Vieille-Poste",
    "ecrans": 1,
    "fauteuils": 314,
    "geo": {
      "lon": 2.363281,
      "lat": 48.712693
    }
  },
  {
    "dep": 93,
    "nom": "ESPACE DES ARTS",
    "adresse": "PLACE CHARLES DE GAULLE",
    "code_insee": 93057,
    "commune": "Les Pavillons-sous-Bois",
    "ecrans": 1,
    "fauteuils": 329,
    "geo": {
      "lon": 2.507379,
      "lat": 48.903037
    }
  },
  {
    "dep": 94,
    "nom": "CENTRE DES BORDS DE MARNE",
    "adresse": "2 RUE DE LA PRAIRIE",
    "code_insee": 94058,
    "commune": "Le Perreux-sur-Marne",
    "ecrans": 1,
    "fauteuils": 198,
    "geo": {
      "lon": 2.509968,
      "lat": 48.84694
    }
  },
  {
    "dep": 92,
    "nom": "CINEMA GERARD PHILIPE",
    "adresse": "1 PLACE JANE RHODES",
    "code_insee": 92060,
    "commune": "Le Plessis-Robinson",
    "ecrans": 2,
    "fauteuils": 400,
    "geo": {
      "lon": 2.254424,
      "lat": 48.777607
    }
  },
  {
    "dep": 94,
    "nom": "ESPACE PAUL VALERY",
    "adresse": "72 ET 74 AVENUE ARDOUIN",
    "code_insee": 94059,
    "commune": "Le Plessis-Trévise",
    "ecrans": 1,
    "fauteuils": 340,
    "geo": {
      "lon": 2.578145,
      "lat": 48.80535
    }
  },
  {
    "dep": 78,
    "nom": "C 2 L",
    "adresse": "18 RUE CHARLES DE GAULLE",
    "code_insee": 78498,
    "commune": "Poissy",
    "ecrans": 5,
    "fauteuils": 983,
    "geo": {
      "lon": 2.029616,
      "lat": 48.92287
    }
  },
  {
    "dep": 77,
    "nom": "APOLLO",
    "adresse": "62 AVENUE DE LA REPUBLIQUE",
    "code_insee": 77373,
    "commune": "Pontault-Combault",
    "ecrans": 2,
    "fauteuils": 295,
    "geo": {
      "lon": 2.611316,
      "lat": 48.803412
    }
  },
  {
    "dep": 95,
    "nom": "ROYAL UTOPIA",
    "adresse": "14 RUE ALEXANDRE PRACHAY",
    "code_insee": 95500,
    "commune": "Pontoise",
    "ecrans": 1,
    "fauteuils": 272,
    "geo": {
      "lon": 2.099047,
      "lat": 49.049188
    }
  },
  {
    "dep": 77,
    "nom": "LE REXY",
    "adresse": "QUARTIER DELORT",
    "code_insee": 77379,
    "commune": "Provins",
    "ecrans": 4,
    "fauteuils": 570,
    "geo": {
      "lon": 3.304398,
      "lat": 48.559158
    }
  },
  {
    "dep": 92,
    "nom": "UGC CINE CITE LA DEFENSE",
    "adresse": "LE DOME",
    "code_insee": 92062,
    "commune": "Puteaux",
    "ecrans": 16,
    "fauteuils": 3642,
    "geo": {
      "lon": 2.242749,
      "lat": 48.876233
    }
  },
  {
    "dep": 92,
    "nom": "LE CENTRAL",
    "adresse": "134 RUE DE LA REPUBLIQUE",
    "code_insee": 92062,
    "commune": "Puteaux",
    "ecrans": 2,
    "fauteuils": 480,
    "geo": {
      "lon": 2.239127,
      "lat": 48.885137
    }
  },
  {
    "dep": 91,
    "nom": "CINOCHE",
    "adresse": "ALLEE JEAN WIENER",
    "code_insee": 91521,
    "commune": "Ris-Orangis",
    "ecrans": 3,
    "fauteuils": 706,
    "geo": {
      "lon": 2.418053,
      "lat": 48.65291
    }
  },
  {
    "dep": 91,
    "nom": "CINOCHE 4",
    "adresse": "AVENUE DE LA LIBERATION",
    "code_insee": 91521,
    "commune": "Ris-Orangis",
    "ecrans": 1,
    "fauteuils": 291,
    "geo": {
      "lon": 2.414242,
      "lat": 48.651395
    }
  },
  {
    "dep": 77,
    "nom": "LA GRANGE",
    "adresse": "FERME DE L'AYAU",
    "code_insee": 77390,
    "commune": "Roissy-en-Brie",
    "ecrans": 1,
    "fauteuils": 192,
    "geo": {
      "lon": 2.648662,
      "lat": 48.793178
    }
  },
  {
    "dep": 93,
    "nom": "LE TRIANON",
    "adresse": "PL CARNOT ET 1 RUE ETIENNE DOLET",
    "code_insee": 93063,
    "commune": "Romainville",
    "ecrans": 1,
    "fauteuils": 436,
    "geo": {
      "lon": 2.44086,
      "lat": 48.883869
    }
  },
  {
    "dep": 93,
    "nom": "UGC CINE CITE ROSNY",
    "adresse": "16 RUE CONRAD ADENAUER",
    "code_insee": 93064,
    "commune": "Rosny-sous-Bois",
    "ecrans": 15,
    "fauteuils": 3324,
    "geo": {
      "lon": 2.480345,
      "lat": 48.880702
    }
  },
  {
    "dep": 93,
    "nom": "ESPACE GEORGES SIMENON",
    "adresse": "PLACE CARNOT",
    "code_insee": 93064,
    "commune": "Rosny-sous-Bois",
    "ecrans": 1,
    "fauteuils": 229,
    "geo": {
      "lon": 2.482728,
      "lat": 48.873327
    }
  },
  {
    "dep": 92,
    "nom": "ARIEL",
    "adresse": "99 AVENUE PAUL DOUMER",
    "code_insee": 92063,
    "commune": "Rueil-Malmaison",
    "ecrans": 3,
    "fauteuils": 689,
    "geo": {
      "lon": 2.180852,
      "lat": 48.879844
    }
  },
  {
    "dep": 92,
    "nom": "ARIEL HAUTS DE RUEIL",
    "adresse": "59 AVENUE DE FOUILLEUSE",
    "code_insee": 92063,
    "commune": "Rueil-Malmaison",
    "ecrans": 3,
    "fauteuils": 688,
    "geo": {
      "lon": 2.194794,
      "lat": 48.862565
    }
  },
  {
    "dep": 78,
    "nom": "C2L CIN'HOCHE",
    "adresse": "6 RUE HOCHE",
    "code_insee": 78586,
    "commune": "Sartrouville",
    "ecrans": 5,
    "fauteuils": 436,
    "geo": {
      "lon": 2.159419,
      "lat": 48.937892
    }
  },
  {
    "dep": 77,
    "nom": "ESPACE PREVERT",
    "adresse": "QUARTIER DU PLESSIS LE ROI",
    "code_insee": 77445,
    "commune": "Savigny-le-Temple",
    "ecrans": 1,
    "fauteuils": 390,
    "geo": {
      "lon": 2.579118,
      "lat": 48.57649
    }
  },
  {
    "dep": 92,
    "nom": "TRIANON",
    "adresse": "3 BIS RUE MARGUERITE RENAUDIN",
    "code_insee": 92071,
    "commune": "Sceaux",
    "ecrans": 1,
    "fauteuils": 270,
    "geo": {
      "lon": 2.292628,
      "lat": 48.777656
    }
  },
  {
    "dep": 92,
    "nom": "CINE SEL",
    "adresse": "47 GRANDE RUE",
    "code_insee": 92072,
    "commune": "Sèvres",
    "ecrans": 1,
    "fauteuils": 380,
    "geo": {
      "lon": 2.21509930000002,
      "lat": 48.82472689999999
    }
  },
  {
    "dep": 93,
    "nom": "SALLE PAUL ELUARD",
    "adresse": "PLACE MARCEL POINTET",
    "code_insee": 93072,
    "commune": "Stains",
    "ecrans": 1,
    "fauteuils": 699,
    "geo": {
      "lon": 2.381372,
      "lat": 48.951678
    }
  },
  {
    "dep": 94,
    "nom": "ESPACE JEAN-MARIE POIRIER",
    "adresse": "ESPLANADE DU 18 JUIN 1940",
    "code_insee": 94071,
    "commune": "Sucy-en-Brie",
    "ecrans": 1,
    "fauteuils": 205,
    "geo": {
      "lon": 2.512597,
      "lat": 48.772452
    }
  },
  {
    "dep": 92,
    "nom": "LE CAPITOLE",
    "adresse": "3 RUE LEDRU ROLLIN",
    "code_insee": 92073,
    "commune": "Suresnes",
    "ecrans": 4,
    "fauteuils": 644,
    "geo": {
      "lon": 2.229109,
      "lat": 48.871363
    }
  },
  {
    "dep": 78,
    "nom": "LE CRATERE",
    "adresse": "RUE JEAN MOULIN",
    "code_insee": 78537,
    "commune": "Saint-Arnoult-en-Yvelines",
    "ecrans": 1,
    "fauteuils": 439,
    "geo": {
      "lon": 1.933453,
      "lat": 48.571134
    }
  },
  {
    "dep": 92,
    "nom": "LES TROIS PIERROTS",
    "adresse": "6-8 RUE DU MONT VALERIEN",
    "code_insee": 92064,
    "commune": "Saint-Cloud",
    "ecrans": 2,
    "fauteuils": 466,
    "geo": {
      "lon": 2.216385,
      "lat": 48.852362
    }
  },
  {
    "dep": 78,
    "nom": "LES YEUX D ELSA",
    "adresse": "11 BIS AVE JEAN JAURES",
    "code_insee": 78545,
    "commune": "Saint-Cyr-l'École",
    "ecrans": 1,
    "fauteuils": 168,
    "geo": {
      "lon": 2.067533,
      "lat": 48.799763
    }
  },
  {
    "dep": 93,
    "nom": "ECRAN",
    "adresse": "14 PASSAGE DE L ACQUEDUC",
    "code_insee": 93066,
    "commune": "Saint-Denis",
    "ecrans": 2,
    "fauteuils": 398,
    "geo": {
      "lon": 2.358747,
      "lat": 48.93659
    }
  },
  {
    "dep": 93,
    "nom": "GAUMONT",
    "adresse": "8 RUE DU MONDIAL 1998",
    "code_insee": 93066,
    "commune": "Saint-Denis",
    "ecrans": 9,
    "fauteuils": 1513,
    "geo": {
      "lon": 2.363117,
      "lat": 48.925395
    }
  },
  {
    "dep": 77,
    "nom": "ESPACE CULTUREL LES 26 COULEURS",
    "adresse": "IMPASSE PASTEUR",
    "code_insee": 77407,
    "commune": "Saint-Fargeau-Ponthierry",
    "ecrans": 1,
    "fauteuils": 222,
    "geo": {
      "lon": 2.547053,
      "lat": 48.535934
    }
  },
  {
    "dep": 91,
    "nom": "LES 4 PERRAY",
    "adresse": "44/46 AV GABRIEL PERI",
    "code_insee": 91549,
    "commune": "Sainte-Geneviève-des-Bois",
    "ecrans": 3,
    "fauteuils": 449,
    "geo": {
      "lon": 2.326708,
      "lat": 48.647712
    }
  },
  {
    "dep": 78,
    "nom": "C 2 L",
    "adresse": "25/27/29 RUE DU VIEUX MARCHE",
    "code_insee": 78551,
    "commune": "Saint-Germain-en-Laye",
    "ecrans": 5,
    "fauteuils": 742,
    "geo": {
      "lon": 2.090977,
      "lat": 48.896605
    }
  },
  {
    "dep": 95,
    "nom": "LES TOILES OLYMPIC",
    "adresse": "PLACE FRANCOIS TRUFFAUT",
    "code_insee": 95555,
    "commune": "Saint-Gratien",
    "ecrans": 3,
    "fauteuils": 371,
    "geo": {
      "lon": 2.274468,
      "lat": 48.971269
    }
  },
  {
    "dep": 94,
    "nom": "LE LIDO",
    "adresse": "70 AV DE LA REPUBLIQUE",
    "code_insee": 94068,
    "commune": "Saint-Maur-des-Fossés",
    "ecrans": 1,
    "fauteuils": 425,
    "geo": {
      "lon": 2.485821,
      "lat": 48.798427
    }
  },
  {
    "dep": 94,
    "nom": "LES 4 DELTA 4",
    "adresse": "81 BIS AVENUE DU BAC",
    "code_insee": 94068,
    "commune": "Saint-Maur-des-Fossés",
    "ecrans": 4,
    "fauteuils": 886,
    "geo": {
      "lon": 2.514771,
      "lat": 48.793451
    }
  },
  {
    "dep": 91,
    "nom": "CINES CARNE",
    "adresse": "PLACE MARCEL CARNE",
    "code_insee": 91570,
    "commune": "Saint-Michel-sur-Orge",
    "ecrans": 3,
    "fauteuils": 496,
    "geo": {
      "lon": 2.320768,
      "lat": 48.637713
    }
  },
  {
    "dep": 95,
    "nom": "UTOPIA",
    "adresse": "1 PLACE MENDES-FRANCE",
    "code_insee": 95572,
    "commune": "Saint-Ouen-l'Aumône",
    "ecrans": 5,
    "fauteuils": 513,
    "geo": {
      "lon": 2.106823,
      "lat": 49.044334
    }
  },
  {
    "dep": 93,
    "nom": "ESPACE 1789",
    "adresse": "7/9 RUE DES ROSIERS",
    "code_insee": 93070,
    "commune": "Saint-Ouen",
    "ecrans": 2,
    "fauteuils": 668,
    "geo": {
      "lon": 2.339193,
      "lat": 48.904144
    }
  },
  {
    "dep": 95,
    "nom": "STUDIO CINE",
    "adresse": "207 RUE DE PARIS",
    "code_insee": 95607,
    "commune": "Taverny",
    "ecrans": 2,
    "fauteuils": 329,
    "geo": {
      "lon": 2.224754,
      "lat": 49.026312
    }
  },
  {
    "dep": 94,
    "nom": "PATHE BELLE EPINE",
    "adresse": "CENTRE COMMERCIAL BELLE EPINE",
    "code_insee": 94073,
    "commune": "Thiais",
    "ecrans": 16,
    "fauteuils": 3679,
    "geo": {
      "lon": 2.371928,
      "lat": 48.756508
    }
  },
  {
    "dep": 77,
    "nom": "MEGA CGR",
    "adresse": "PROMENADE DU 7ÈME ART",
    "code_insee": 77468,
    "commune": "Torcy",
    "ecrans": 16,
    "fauteuils": 2891,
    "geo": {
      "lon": 2.654959,
      "lat": 48.840592
    }
  },
  {
    "dep": 78,
    "nom": "CINEMA LE GRENIER A SEL",
    "adresse": "PLACE DU 8 MAI 1945",
    "code_insee": 78621,
    "commune": "Trappes",
    "ecrans": 1,
    "fauteuils": 218,
    "geo": {
      "lon": 1.992423,
      "lat": 48.780183
    }
  },
  {
    "dep": 93,
    "nom": "JACQUES TATI",
    "adresse": "29 BIS AV CHARLES DE GAULLE",
    "code_insee": 93073,
    "commune": "Tremblay-en-France",
    "ecrans": 3,
    "fauteuils": 524,
    "geo": {
      "lon": 2.550261,
      "lat": 48.99649
    }
  },
  {
    "dep": 93,
    "nom": "PATHE",
    "adresse": "RUE DES BUISSONS",
    "code_insee": 93073,
    "commune": "Tremblay-en-France",
    "ecrans": 12,
    "fauteuils": 2380,
    "geo": {
      "lon": 2.524032,
      "lat": 48.991044
    }
  },
  {
    "dep": 91,
    "nom": "STUDIO DES CHAMPS LASNIERS",
    "adresse": "AVENUE DU BERRY",
    "code_insee": 91692,
    "commune": "Les Ulis",
    "ecrans": 1,
    "fauteuils": 210,
    "geo": {
      "lon": 2.169714,
      "lat": 48.682507
    }
  },
  {
    "dep": 91,
    "nom": "UGC LES ULIS",
    "adresse": "CENTRE COMMERCIAL LES ULIS 2",
    "code_insee": 91692,
    "commune": "Les Ulis",
    "ecrans": 4,
    "fauteuils": 600,
    "geo": {
      "lon": 2.175597,
      "lat": 48.675884
    }
  },
  {
    "dep": 77,
    "nom": "LES VARIETES",
    "adresse": "72 RUE DE CHELLES",
    "code_insee": 77479,
    "commune": "Vaires-sur-Marne",
    "ecrans": 1,
    "fauteuils": 311,
    "geo": {
      "lon": 2.632366,
      "lat": 48.874168
    }
  },
  {
    "dep": 92,
    "nom": "LE VANVES",
    "adresse": "12 RUE SADI CARNOT",
    "code_insee": 92075,
    "commune": "Vanves",
    "ecrans": 1,
    "fauteuils": 192,
    "geo": {
      "lon": 2.287439,
      "lat": 48.821779
    }
  },
  {
    "dep": 77,
    "nom": "CINEMA CONFLUENCES VARENNES",
    "adresse": "PETIT FOSSARD",
    "code_insee": 77482,
    "commune": "Varennes-sur-Seine",
    "ecrans": 9,
    "fauteuils": 1603,
    "geo": {
      "lon": 2.957289,
      "lat": 48.367677
    }
  },
  {
    "dep": 92,
    "nom": "LE NORMANDY",
    "adresse": "72 BOULEVARD DE LA REPUBLIQUE",
    "code_insee": 92076,
    "commune": "Vaucresson",
    "ecrans": 2,
    "fauteuils": 295,
    "geo": {
      "lon": 2.157499,
      "lat": 48.837881
    }
  },
  {
    "dep": 95,
    "nom": "L'ANTARES",
    "adresse": "1, PLACE DU COEUR BATTANT",
    "code_insee": 95637,
    "commune": "Vauréal",
    "ecrans": 2,
    "fauteuils": 217,
    "geo": {
      "lon": 2.021182,
      "lat": 49.030119
    }
  },
  {
    "dep": 77,
    "nom": "LA GRANGE",
    "adresse": "RUE AMBROISE PRO",
    "code_insee": 77487,
    "commune": "Vaux-le-Pénil",
    "ecrans": 1,
    "fauteuils": 268,
    "geo": {
      "lon": 2.689584,
      "lat": 48.527795
    }
  },
  {
    "dep": 78,
    "nom": "ESPACE MAURICE BEJART",
    "adresse": "3 BLVD ANDRE MALRAUX",
    "code_insee": 78642,
    "commune": "Verneuil-sur-Seine",
    "ecrans": 1,
    "fauteuils": 312,
    "geo": {
      "lon": 1.97461,
      "lat": 48.979213
    }
  },
  {
    "dep": 91,
    "nom": "ESPACE BERNARD MANTIENNE",
    "adresse": "VOIE DE L'AULNE",
    "code_insee": 91645,
    "commune": "Verrières-le-Buisson",
    "ecrans": 2,
    "fauteuils": 491,
    "geo": {
      "lon": 2.269638,
      "lat": 48.754993
    }
  },
  {
    "dep": 78,
    "nom": "UGC CYRANO",
    "adresse": "7 RUE RAMEAU",
    "code_insee": 78646,
    "commune": "Versailles",
    "ecrans": 8,
    "fauteuils": 1590,
    "geo": {
      "lon": 2.130901,
      "lat": 48.807883
    }
  },
  {
    "dep": 78,
    "nom": "UGC ROXANE",
    "adresse": "6 RUE ST SIMON",
    "code_insee": 78646,
    "commune": "Versailles",
    "ecrans": 4,
    "fauteuils": 769,
    "geo": {
      "lon": 2.133847,
      "lat": 48.803954
    }
  },
  {
    "dep": 78,
    "nom": "CINEMA JEAN MARAIS",
    "adresse": "59 BD CARNOT",
    "code_insee": 78650,
    "commune": "Le Vésinet",
    "ecrans": 1,
    "fauteuils": 199,
    "geo": {
      "lon": 2.134326,
      "lat": 48.893988
    }
  },
  {
    "dep": 92,
    "nom": "LE COLOMBIER",
    "adresse": "PLACE CHARLES DE GAULLE",
    "code_insee": 92077,
    "commune": "Ville-d'Avray",
    "ecrans": 1,
    "fauteuils": 279,
    "geo": {
      "lon": 2.18397,
      "lat": 48.824654
    }
  },
  {
    "dep": 94,
    "nom": "CINEMA D ART ROMAIN ROLLAND",
    "adresse": "18 RUE EUGENE VARLIN",
    "code_insee": 94076,
    "commune": "Villejuif",
    "ecrans": 1,
    "fauteuils": 616,
    "geo": {
      "lon": 2.363199,
      "lat": 48.793428
    }
  },
  {
    "dep": 92,
    "nom": "ANDRE MALRAUX",
    "adresse": "28 AVENUE DE VERDUN",
    "code_insee": 92078,
    "commune": "Villeneuve-la-Garenne",
    "ecrans": 1,
    "fauteuils": 212,
    "geo": {
      "lon": 2.333275,
      "lat": 48.935662
    }
  },
  {
    "dep": 94,
    "nom": "ESPACE CULTUREL",
    "adresse": "56BIS AVENUE CARNOT",
    "code_insee": 94077,
    "commune": "Villeneuve-le-Roi",
    "ecrans": 1,
    "fauteuils": 448,
    "geo": {
      "lon": 2.416829,
      "lat": 48.735355
    }
  },
  {
    "dep": 94,
    "nom": "LE CASINO",
    "adresse": "13 RUE GUILLAUME BUDE",
    "code_insee": 94079,
    "commune": "Villiers-sur-Marne",
    "ecrans": 1,
    "fauteuils": 220,
    "geo": {
      "lon": 2.542402,
      "lat": 48.826124
    }
  },
  {
    "dep": 94,
    "nom": "CINEMA SORANO",
    "adresse": "1 RUE CHARLES PATHE",
    "code_insee": 94080,
    "commune": "Vincennes",
    "ecrans": 1,
    "fauteuils": 204,
    "geo": {
      "lon": 2.437319,
      "lat": 48.849453
    }
  },
  {
    "dep": 94,
    "nom": "LE VINCENNES",
    "adresse": "30 AV DE PARIS",
    "code_insee": 94080,
    "commune": "Vincennes",
    "ecrans": 4,
    "fauteuils": 481,
    "geo": {
      "lon": 2.434268,
      "lat": 48.845095
    }
  },
  {
    "dep": 91,
    "nom": "CALYPSO A",
    "adresse": "38 RUE VICTOR BASCH",
    "code_insee": 91687,
    "commune": "Viry-Châtillon",
    "ecrans": 3,
    "fauteuils": 551,
    "geo": {
      "lon": 2.379391,
      "lat": 48.681815
    }
  },
  {
    "dep": 94,
    "nom": "3 CINES ROBESPIERRE",
    "adresse": "19 AVENUE MAXIMILIEN ROBESPIERRE",
    "code_insee": 94081,
    "commune": "Vitry-sur-Seine",
    "ecrans": 3,
    "fauteuils": 549,
    "geo": {
      "lon": 2.388152,
      "lat": 48.790948
    }
  },
  {
    "dep": 91,
    "nom": "CINEMA PARADISO",
    "adresse": "2 RUE MARC SANGNIER",
    "code_insee": 91691,
    "commune": "Yerres",
    "ecrans": 1,
    "fauteuils": 214,
    "geo": {
      "lon": 2.489765,
      "lat": 48.714932
    }
  },
  {
    "dep": 92,
    "nom": "MEGARAMA",
    "adresse": "44 AVENUE DE LA LONGUE BERTRANE",
    "code_insee": 92078,
    "commune": "Villeneuve-la-Garenne",
    "ecrans": 18,
    "fauteuils": 3728,
    "geo": {
      "lon": 2.320895,
      "lat": 48.930677
    }
  },
  {
    "dep": 91,
    "nom": "KINEPOLIS BRETIGNY",
    "adresse": "5 RUE MICHELE MORGAN",
    "code_insee": 91103,
    "commune": "Brétigny-sur-Orge",
    "ecrans": 10,
    "fauteuils": 1508,
    "geo": {
      "lon": 2.2996356999999534,
      "lat": 48.57924680000001
    }
  },
  {
    "dep": 94,
    "nom": "UGC CINE CITE",
    "adresse": "CENTRE COMMERCIAL CRETEIL SOLEIL",
    "code_insee": 94028,
    "commune": "Créteil",
    "ecrans": 18,
    "fauteuils": 3702,
    "geo": {
      "lon": 2.469391,
      "lat": 48.797186
    }
  },
  {
    "dep": 78,
    "nom": "UGC CINE CITE SQY OUEST",
    "adresse": "1 AV. DE LA SOURCE DE LA BIEVRE",
    "code_insee": 78423,
    "commune": "Montigny-le-Bretonneux",
    "ecrans": 16,
    "fauteuils": 3612,
    "geo": {
      "lon": 2.039775,
      "lat": 48.784168
    }
  },
  {
    "dep": 95,
    "nom": "MEGARAMA",
    "adresse": "82 BOULEVARD VICTOR BORDIER",
    "code_insee": 95424,
    "commune": "Montigny-lès-Cormeilles",
    "ecrans": 8,
    "fauteuils": 1861,
    "geo": {
      "lon": 2.194982,
      "lat": 48.994228
    }
  },
  {
    "dep": 95,
    "nom": "CGR MY PLACE SARCELLES",
    "adresse": "2 ALLEE HENRI DUNANT",
    "code_insee": 95585,
    "commune": "Sarcelles",
    "ecrans": 10,
    "fauteuils": 1817,
    "geo": {
      "lon": 2.372423,
      "lat": 48.984111
    }
  },
  {
    "dep": 91,
    "nom": "PATHE",
    "adresse": "21 PLACE DU GRAND OUEST",
    "code_insee": 91377,
    "commune": "Massy",
    "ecrans": 9,
    "fauteuils": 1894,
    "geo": {
      "lon": 2.262676,
      "lat": 48.724173
    }
  },
  {
    "dep": 94,
    "nom": "CINE PINCE VENT",
    "adresse": "CENTRE COMMERCIAL PINCE VENT 85 ROUTE DE PROVINS",
    "code_insee": 94019,
    "commune": "Chennevières-sur-Marne",
    "ecrans": 8,
    "fauteuils": 1606,
    "geo": {
      "lon": 2.5525718999999754,
      "lat": 48.7946166
    }
  },
  {
    "dep": 78,
    "nom": "UGC CINE CITE VELIZY",
    "adresse": "2 AVENUE DE L'EUROPE",
    "code_insee": 78640,
    "commune": "Vélizy-Villacoublay",
    "ecrans": 18,
    "fauteuils": 3814,
    "geo": {
      "lon": 2.189542,
      "lat": 48.78103
    }
  },
  {
    "dep": 78,
    "nom": "UGC CINE CITE PARLY",
    "adresse": "2 AVENUE CHARLES DE GAULLE",
    "code_insee": 78158,
    "commune": "Le Chesnay",
    "ecrans": 12,
    "fauteuils": 2200,
    "geo": {
      "lon": 2.116072,
      "lat": 48.827796
    }
  },
  {
    "dep": 77,
    "nom": "KINEPOLIS SERVON",
    "adresse": "ZAC DE NOYER AUX PERDRIX",
    "code_insee": 77450,
    "commune": "SERVON",
    "ecrans": 9,
    "fauteuils": 1209,
    "geo": {
      "lon": 2.589559,
      "lat": 48.718766
    }
  }
]